Address,ZoningCode,Latitude,Longitude,MaxSolarPanels,MaxSolarAreaM2,SunshineHoursPerYear,InstallationCost,AnnualEnergyProductionKWh,AnnualSavings,PaybackPeriodYears
595 HAROLD AVE NE,Single Family Residential,33.770499,-84.3303339,22,43.198208,1656.7733,6600,2747.36,357.15680000000003,18.479278568964666
591 HAROLD AVE NE,Single Family Residential,33.770361,-84.3303339,10,19.635548,1576.3138,3000,1248.8,162.344,18.47927856896467
0 LAKESHORE DR NE,Single Family Residential,33.8159159,-84.3664932,191,375.03897,1565.1273,57300,23852.08,3100.7704000000003,18.479278568964666
601 HAROLD AVE NE,Single Family Residential,33.770636,-84.3303339,22,43.198208,1656.7733,6600,2747.36,357.15680000000003,18.479278568964666
1330 EAST ROCK SPRINGS RD NE,Single Family Residential,33.79556,-84.343763,49,96.21419,1405.466,14700,6119.12,795.4856,18.47927856896467
0 EAST WESLEY RD NE,Single Family Residential,33.8286546,-84.38745899999999,26,51.052425,1427.462,7800,3246.88,422.0944,18.479278568964666
0 PEACHTREE HILLS AVE NE,Single Family Residential,33.818054,-84.3886101,159,312.20523,1529.2167,47700,19855.92,2581.2696,18.479278568964666
320 PINETREE DR NE,Single Family Residential,33.829158,-84.377265,100,196.35548,1032.8019,30000,12488,1623.44,18.479278568964666
0 HABERSHAM RD NW,Single Family Residential,33.8337259,-84.3950375,38,74.61508,1315.1056,11400,4745.44,616.9072,18.479278568964666
2243 HAVENRIDGE DR NW,Single Family Residential,33.8164863,-84.39938339999999,74,145.30305,1514.4901,22200,9241.12,1201.3456,18.479278568964666
2249 HAVENRIDGE DR NW,Single Family Residential,33.8167002,-84.3994589,74,145.30305,1514.4901,22200,9241.12,1201.3456,18.479278568964666
0 WEST WESLEY RD NW,Single Family Residential,33.8283745,-84.38780369999999,35,68.72442,1464.8153,10500,4370.8,568.2040000000001,18.479278568964666
0 KINSEY CT NE,Single Family Residential,33.8155376,-84.3803703,25,49.08887,981.4637,7500,3122,405.86,18.479278568964666
0 SUNBURY PL NW,Single Family Residential,33.8075347,-84.4088601,23,45.161762,1231.841,6900,2872.24,373.39119999999997,18.47927856896467
471 COLLIER RD NW,Single Family Residential,33.8110915,-84.40195899999999,22,43.198208,884.6826,6600,2747.36,357.15680000000003,18.479278568964666
625 MOORES MILL RD NW,Single Family Residential,33.8452121,-84.40767149999999,58,113.886185,1204.3379,17400,7243.04,941.5952,18.479278568964666
0 EDINBORO RD NW,Single Family Residential,33.83565,-84.4093975,45,88.35997,1520.996,13500,5619.6,730.5480000000001,18.479278568964666
0 MEREDITH DR NW,Single Family Residential,33.806467,-84.4047476,6,11.781329,884.6819,1800,749.28,97.4064,18.479278568964666
0 HAVENRIDGE DR NW,Single Family Residential,33.8190527,-84.3998343,64,125.66751,924.4977,19200,7992.32,1039.0016,18.479278568964666
0 ARDMORE RD NW,Single Family Residential,33.8073863,-84.3986046,41,80.50575,1025.7002,12300,5120.08,665.6104,18.479278568964666
0 DELLWOOD DR NW # REAR,Single Family Residential,34.2686004,-85.2128918,126,247.40791,1546.9634,37800,15734.88,2045.5344,18.479278568964666
300 RUMSON RD NE,Single Family Residential,33.82931,-84.377553,79,155.12083,1567.5704,23700,9865.52,1282.5176000000001,18.479278568964666
0 BROOKVIEW DR NW,Single Family Residential,33.8144076,-84.41967,70,137.44884,928.7654,21000,8741.6,1136.4080000000001,18.479278568964666
2970 HOWELL MILL RD NW,Single Family Residential,33.8375239,-84.4208761,70,137.44884,1370.8174,21000,8741.6,1136.4080000000001,18.479278568964666
0 PINE MEADOW RD NW,Single Family Residential,33.8460072,-84.4257788,75,147.26662,1254.957,22500,9366,1217.5800000000002,18.479278568964666
308 PEACHTREE HILLS AVE NE,Single Family Residential,33.8182314,-84.37771169999999,314,616.5562,1465.1102,94200,39212.32,5097.6016,18.479278568964666
0 KINSEY CT NE # REAR,Single Family Residential,33.8155376,-84.3803703,25,49.08887,981.4637,7500,3122,405.86,18.479278568964666
2205 NORTHSIDE DR NW,Single Family Residential,33.8161821,-84.4071713,156,306.31454,1578.6298,46800,19481.28,2532.5664,18.479278568964666
0 NORTHSIDE DR NW,Single Family Residential,33.7547203,-84.4028014,59,115.84974,1534.9318,17700,7367.92,957.8296,18.479278568964666
0 NORTH DECATUR RD NE,Single Family Residential,33.7926182,-84.2876304,40,78.54219,1573.3506,12000,4995.2,649.376,18.47927856896467
647 MOORES MILL RD NW,Single Family Residential,33.8444835,-84.40893899999999,541,1062.2832,1648.5879,162300,67560.08,8782.8104,18.479278568964666
0 NORTH DECATUR RD NE,Single Family Residential,33.7926182,-84.2876304,40,78.54219,1573.3506,12000,4995.2,649.376,18.47927856896467
0 COLLIER RD NW,Single Family Residential,33.8071345,-84.39472289999999,184,361.2941,1589.5404,55200,22977.92,2987.1295999999998,18.47927856896467
0 NORTH HIGHLAND AVE,Single Family Residential,39.2926821,-76.5696971,13,25.526213,1446,3900,1623.44,211.0472,18.479278568964666
3552 ROCKHAVEN CIR NE,Single Family Residential,33.8481066,-84.3516439,81,159.04794,1579.6699,24300,10115.28,1314.9864000000002,18.479278568964663
0 BERKSHIRE RD NE,Single Family Residential,40.6556358,-73.5618932,27,53.01598,1399,8100,3371.76,438.32880000000006,18.479278568964666
0 NORTH PELHAM RD NE # R,Single Family Residential,33.8002982,-84.3610411,33,64.79731,974.00684,9900,4121.04,535.7352,18.47927856896467
1502 MONROE DR NE,Single Family Residential,33.795458,-84.367966,11,21.599104,1087.0052,3300,1373.68,178.57840000000002,18.479278568964666
2183 ARMAND RD NE,Single Family Residential,33.814511,-84.35946799999999,18,35.343987,1092.8029,5400,2247.84,292.2192,18.479278568964666
0 ARMAND RD NE # REAR,Single Family Residential,33.817517,-84.3594924,46,90.323524,1100.6854,13800,5744.48,746.7823999999999,18.47927856896467
0 ELKMONT DR NE,Single Family Residential,33.7860661,-84.3639774,69,135.48529,1510.9385,20700,8616.72,1120.1735999999999,18.47927856896467
0 DUTCH VALLEY RD NE,Single Family Residential,40.1439354,-74.2089526,74,145.30305,1256.0764,22200,9241.12,1201.3456,18.479278568964666
0 CUMBERLAND RD NE,Single Family Residential,41.5541737,-73.87099169999999,61,119.77685,1442.0052,18300,7617.68,990.2984,18.479278568964666
1290 EVELYN ST NE,Single Family Residential,33.78976919999999,-84.36889579999999,57,111.92263,1651.0846,17100,7118.16,925.3608,18.479278568964666
0 EVELYN ST NE,Single Family Residential,33.789721,-84.3700192,38,74.61508,1466.6979,11400,4745.44,616.9072,18.479278568964666
1314 MONROE DR NE,Single Family Residential,33.790573,-84.367519,22,43.198208,1089.0278,6600,2747.36,357.15680000000003,18.479278568964666
0 EAST PARK LN NE,Single Family Residential,33.7933675,-84.3743065,79,155.12083,1597.7087,23700,9865.52,1282.5176000000001,18.479278568964666
0 WELLBOURNE DR NE,Single Family Residential,33.8064555,-84.3601076,76,149.23016,1533.8455,22800,9490.88,1233.8144,18.479278568964666
1950 MONROE DR NE,Multi-Family Residential,33.8080643,-84.3753905,434,852.1828,1541.2966,130200,54197.92,7045.7296,18.47927856896467
0 MADDOX DR NE,Single Family Residential,33.7950902,-84.3786911,41,80.50575,1307.6982,12300,5120.08,665.6104,18.479278568964666
0 LENOX RD NE,Single Family Residential,33.8274389,-84.3546728,48,94.25063,1579.2177,14400,5994.24,779.2512,18.479278568964666
1506 MONROE DR NE,Single Family Residential,33.795584,-84.368095,22,43.198208,1623.222,6600,2747.36,357.15680000000003,18.479278568964666
0 WESTMINSTER DR NE,Single Family Residential,33.7906602,-84.3828968,106,208.13681,1592.8042,31800,13237.28,1720.8464000000001,18.479278568964666
0 BARKSDALE DR NE,Single Family Residential,33.7900622,-84.3793795,71,139.4124,1477.5248,21300,8866.48,1152.6424,18.47927856896467
586 WORCHESTER DR NE,Single Family Residential,33.7911519,-84.36798499999999,58,113.886185,1659.6902,17400,7243.04,941.5952,18.479278568964666
0 LENOX RD NE,Single Family Residential,33.8274389,-84.3546728,48,94.25063,1579.2177,14400,5994.24,779.2512,18.479278568964666
0 LENOX RD NE,Single Family Residential,33.8274389,-84.3546728,48,94.25063,1579.2177,14400,5994.24,779.2512,18.479278568964666
2001 WILDWOOD RD NE,Single Family Residential,33.803083,-84.35108369999999,58,113.886185,1534.2255,17400,7243.04,941.5952,18.479278568964666
0 LANIER BLV NE # REAR,Single Family Residential,33.786899,-84.3499413,50,98.17774,1583.2029,15000,6244,811.72,18.479278568964666
0 FIFTEENTH ST NE,Single Family Residential,38.8901094,-76.98385999999999,33,64.79731,1453.8711,9900,4121.04,535.7352,18.47927856896467
2366 ARMAND RD NE,Single Family Residential,33.8196403,-84.3584077,30,58.906647,1444.4968,9000,3746.4,487.03200000000004,18.479278568964666
2372 ARMAND RD NE,Single Family Residential,33.8198257,-84.3584202,30,58.906647,1444.4968,9000,3746.4,487.03200000000004,18.479278568964666
0 CARDOVA DR NE,Single Family Residential,33.8167042,-84.3579726,71,139.4124,1450.7826,21300,8866.48,1152.6424,18.47927856896467
600 EVELYN ST NE,Single Family Residential,33.7909284,-84.3695352,7,13.7448845,1587.8687,2100,874.16,113.6408,18.479278568964666
1290 EVELYN ST NE,Single Family Residential,33.78976919999999,-84.36889579999999,57,111.92263,1651.0846,17100,7118.16,925.3608,18.479278568964666
1491 PIEDMONT AVE NE,Single Family Residential,33.7957826,-84.37012659999999,304,596.92065,1562.0632,91200,37963.52,4935.2576,18.479278568964666
1510 MONROE DR NE,Single Family Residential,33.795726,-84.368212,22,43.198208,1623.222,6600,2747.36,357.15680000000003,18.479278568964666
0 SHADY VALLEY DR NE,Single Family Residential,38.68771539999999,-90.50818269999999,18,35.343987,1269.1288,5400,2247.84,292.2192,18.479278568964666
1345 PIEDMONT AVE NE,Single Family Residential,33.7899524,-84.37261819999999,163,320.05945,1464.5111,48900,20355.44,2646.2072,18.47927856896467
1345 PIEDMONT AVE NE,Single Family Residential,33.7899524,-84.37261819999999,163,320.05945,1464.5111,48900,20355.44,2646.2072,18.47927856896467
0 WEST WIEUCA RD NW,Single Family Residential,33.877076,-84.3874167,15,29.453323,1411.9609,4500,1873.2,243.51600000000002,18.479278568964666
4001 POWERS FERRY RD NW,Single Family Residential,33.86638720000001,-84.38939099999999,80,157.08438,1472.874,24000,9990.4,1298.752,18.47927856896467
0 POWERS FERRY RD NW,Single Family Residential,33.8934858,-84.4093803,61,119.77685,1107.1333,18300,7617.68,990.2984,18.479278568964666
4191 NORTHSIDE DR NW,Single Family Residential,33.8696748,-84.4064884,971,1906.6118,1528.1552,291300,121258.48,15763.6024,18.479278568964666
0 HILLSIDE DR NW,Single Family Residential,41.9881192,-91.7134027,47,92.28708,1346,14100,5869.36,763.0168,18.479278568964666
0 CAVE RD NW,Single Family Residential,33.8630946,-84.4346992,32,62.833755,1141.9556,9600,3996.16,519.5008,18.479278568964666
0 ROSWELL RD NE,Single Family Residential,33.9104008,-84.3711812,125,245.44435,1532.8177,37500,15610,2029.3000000000002,18.479278568964666
0 MOUNT PARAN RD NW,Single Family Residential,33.8943924,-84.3872087,145,284.71545,1547.0208,43500,18107.6,2353.988,18.47927856896467
0 LAKE FORREST DR NW REAR,Single Family Residential,33.8838652,-84.3872691,213,418.23718,1530.4572,63900,26599.44,3457.9272,18.479278568964666
4260 NORTHSIDE DR NW,Single Family Residential,33.8710211,-84.4085475,102,200.2826,1286.3114,30600,12737.76,1655.9088000000002,18.479278568964666
0 RICKENBACKER WAY NE,Single Family Residential,33.8709946,-84.3774793,46,90.323524,1177.923,13800,5744.48,746.7823999999999,18.47927856896467
0 EMMA LN NE,Single Family Residential,33.86387,-84.37574950000001,225,441.79984,1492.1816,67500,28098,3652.7400000000002,18.479278568964666
370 OLD IVY RD NE,Single Family Residential,33.8579967,-84.37411209999999,66,129.59462,1036.8445,19800,8242.08,1071.4704,18.47927856896467
0 RICKENBACKER WAY NE,Single Family Residential,33.8709946,-84.3774793,46,90.323524,1177.923,13800,5744.48,746.7823999999999,18.47927856896467
0 RICKENBACKER WAY NE,Single Family Residential,33.8709946,-84.3774793,46,90.323524,1177.923,13800,5744.48,746.7823999999999,18.47927856896467
0 STOVALL BLV NE,Single Family Residential,33.8617714,-84.3581802,45,88.35997,1173.3691,13500,5619.6,730.5480000000001,18.479278568964666
4012 PEACHTREE DUNWOODY RD,Single Family Residential,33.8644009,-84.3590588,105,206.17326,1099.8165,31500,13112.4,1704.612,18.479278568964666
3994 PEACHTREE DUNWOODY RD,Single Family Residential,33.864213,-84.358728,17,33.380432,1418.6833,5100,2122.96,275.9848,18.479278568964666
0 WEST BROOKHAVEN DR,Single Family Residential,33.8622506,-84.3485548,112,219.91815,1522.983,33600,13986.56,1818.2528,18.479278568964666
3984 PEACHTREE DUNWOODY RD,Single Family Residential,33.86384779999999,-84.3583228,17,33.380432,1418.6833,5100,2122.96,275.9848,18.479278568964666
1575 LORING DR NW,Single Family Residential,33.7976144,-84.39609209999999,580,1138.8618,1545.9064,174000,72430.4,9415.952,18.47927856896467
1583 LORING DR NW,Single Family Residential,33.798223,-84.39629459999999,72,141.37595,1463.5952,21600,8991.36,1168.8768,18.479278568964666
0 LORING DR NW,Single Family Residential,33.7981439,-84.397106,64,125.66751,1204.3856,19200,7992.32,1039.0016,18.479278568964666
0 LORING DR NW,Single Family Residential,33.7981439,-84.397106,64,125.66751,1204.3856,19200,7992.32,1039.0016,18.479278568964666
1567 LORING DR NW,Single Family Residential,33.797779,-84.3964699,580,1138.8618,1545.9064,174000,72430.4,9415.952,18.47927856896467
0 WOODS ST NW,Single Family Residential,35.4003078,-80.6362765,43,84.43286,1476.5076,12900,5369.84,698.0792,18.479278568964666
1015 TUMLIN ST NW,Single Family Residential,33.7825081,-84.4002714,474,930.725,1624.4779,142200,59193.12,7695.105600000001,18.479278568964666
0 HARPER ST NW,Single Family Residential,51.0948315,-114.0754495,60,117.81329,1226.9703,18000,7492.8,974.0640000000001,18.479278568964666
1270 WEST MARIETTA ST NW,Multi-Family Residential,33.784721,-84.42939899999999,11,21.599104,1427.0297,3300,1373.68,178.57840000000002,18.479278568964666
0 BOHLER RD NW,Single Family Residential,33.8215681,-84.4292879,102,200.2826,1601.9763,30600,12737.76,1655.9088000000002,18.479278568964666
1000 MANTISSA ST NW,Single Family Residential,33.8070311,-84.4207984,78,153.15727,1292.4757,23400,9740.64,1266.2832,18.479278568964666
0 COLLINS DR NW,Single Family Residential,33.8141106,-84.465331,63,123.70396,1574.2467,18900,7867.44,1022.7672,18.479278568964666
0 ABNER PL NW,Single Family Residential,33.8019959,-84.4627608,44,86.396416,1264.817,13200,5494.72,714.3136000000001,18.479278568964666
0 ARNO CT NW,Single Family Residential,33.7994332,-84.4660741,15,29.453323,1526.0508,4500,1873.2,243.51600000000002,18.479278568964666
0 PERRY BLVD NW,Single Family Residential,33.797706,-84.4527899,52,102.10485,1646.981,15600,6493.76,844.1888,18.479278568964666
0 MACK DR NW,Single Family Residential,33.7904618,-84.4601751,40,78.54219,1440.9268,12000,4995.2,649.376,18.47927856896467
0 MACK DR NW,Single Family Residential,33.7904618,-84.4601751,40,78.54219,1440.9268,12000,4995.2,649.376,18.47927856896467
0 SAINT PETERS AVE NW,Single Family Residential,33.7840439,-84.4738697,4,7.8542194,930.8791,1200,499.52,64.9376,18.479278568964666
0 LOIS PL NW,Single Family Residential,33.7844234,-84.4533467,4,7.8542194,1551.6838,1200,499.52,64.9376,18.479278568964666
0 HOWELL MILL RD NW,Multi-Family Residential,33.8140886,-84.4150336,65,127.631065,1144.54,19500,8117.2,1055.236,18.479278568964666
2566 CHATTAHOOCHEE CIR NW,Single Family Residential,33.827213,-84.45229499999999,50,98.17774,1605.9631,15000,6244,811.72,18.479278568964666
2588 ETHERIDGE DR NW,Single Family Residential,33.7869928,-84.4726774,784,1539.427,1513.3729,235200,97905.92,12727.7696,18.47927856896467
1148 LOTUS AVE NW,Single Family Residential,33.7866349,-84.4644579,25,49.08887,1372.7828,7500,3122,405.86,18.479278568964666
0 MORRIS ST NW,Single Family Residential,33.7961411,-84.4168982,45,88.35997,1557.6704,13500,5619.6,730.5480000000001,18.479278568964666
1685 CHATTAHOOCHEE AVE NW,Multi-Family Residential,33.8139168,-84.4428669,26,51.052425,1686.8247,7800,3246.88,422.0944,18.479278568964666
2140 ALVIN DR NW,Single Family Residential,33.789059,-84.454084,87,170.82927,1614.1224,26100,10864.56,1412.3928,18.479278568964666
0 WOODS ST NW,Single Family Residential,35.4003078,-80.6362765,43,84.43286,1476.5076,12900,5369.84,698.0792,18.479278568964666
0 RIDGEWOOD RD NW,Single Family Residential,33.8389384,-84.4470101,83,162.97505,1206.3438,24900,10365.04,1347.4552,18.479278568964666
0 MARCO DR NW # REAR,Single Family Residential,33.7988659,-84.4778723,41,80.50575,1383.4642,12300,5120.08,665.6104,18.479278568964666
1752 HOLLYWOOD RD NW,Single Family Residential,33.8034017,-84.471064,1336,2623.3093,1553.9158,400800,166839.68,21689.1584,18.479278568964666
0 COLLINS DR NW,Single Family Residential,33.8141106,-84.465331,63,123.70396,1574.2467,18900,7867.44,1022.7672,18.479278568964666
0 ABNER PL NW REAR,Single Family Residential,43.689256,-79.558513,45,88.35997,1421.517,13500,5619.6,730.5480000000001,18.479278568964666
0 ABNER PL NW,Single Family Residential,33.8019959,-84.4627608,44,86.396416,1264.817,13200,5494.72,714.3136000000001,18.479278568964666
0 ALVIN DR NW,Single Family Residential,33.7888297,-84.4610216,8,15.708439,1386.9069,2400,999.04,129.8752,18.479278568964666
0 SAINT PETERS AVE NW,Single Family Residential,33.7840439,-84.4738697,4,7.8542194,930.8791,1200,499.52,64.9376,18.479278568964666
0 HOLLYWOOD RD NW,Single Family Residential,33.7909708,-84.4670934,304,596.92065,1391.6044,91200,37963.52,4935.2576,18.479278568964666
0 SAINT PAUL AVE NW,Single Family Residential,33.7897923,-84.4680139,65,127.631065,1349.9623,19500,8117.2,1055.236,18.479278568964666
1154 JACKSON PKWY NW,Single Family Residential,33.78762440000001,-84.47782230000001,241,473.21674,1346.1624,72300,30096.08,3912.4904,18.479278568964666
1194 CHURCH ST NW,Single Family Residential,38.9102342,-77.03241799999999,235,461.4354,1499.246,70500,29346.8,3815.084,18.47927856896467
0 MACK DR NW,Single Family Residential,33.7904618,-84.4601751,40,78.54219,1440.9268,12000,4995.2,649.376,18.47927856896467
2181 MACK DR NW,Single Family Residential,33.790891,-84.45894799999999,2,3.9271097,1111.9706,600,249.76,32.4688,18.479278568964666
0 RIDGE VALLEY CT NW # R,Single Family Residential,33.832117,-84.4430387,90,176.71994,1147.4915,27000,11239.2,1461.0960000000002,18.479278568964666
0 JAMES JACKSON PKWY,Single Family Residential,33.7969295,-84.4748945,260,510.52426,1526.0747,78000,32468.8,4220.944,18.479278568964666
0 DEFOORS FERRY RD NW,Single Family Residential,33.8203339,-84.4360029,20,39.271095,1454.7595,6000,2497.6,324.688,18.47927856896467
0 RIDGEWOOD RD NW,Single Family Residential,33.8389384,-84.4470101,83,162.97505,1206.3438,24900,10365.04,1347.4552,18.479278568964666
0 NORTHWEST DR NW,Single Family Residential,33.7930544,-84.4814236,41,80.50575,1171.8291,12300,5120.08,665.6104,18.479278568964666
0 RIDGEMORE RD NW # REAR,Single Family Residential,33.8271689,-84.4454937,41,80.50575,1060.4606,12300,5120.08,665.6104,18.479278568964666
0 NORTH ST NW,Single Family Residential,38.9070782,-77.0104425,15,29.453323,1551.3434,4500,1873.2,243.51600000000002,18.479278568964666
0 JOHNSON RD NW,Single Family Residential,33.7796904,-84.4552553,70,137.44884,1598.4657,21000,8741.6,1136.4080000000001,18.479278568964666
0 PERRY BLVD NW,Single Family Residential,33.797706,-84.4527899,52,102.10485,1646.981,15600,6493.76,844.1888,18.479278568964666
2040 MAIN ST NW,Multi-Family Residential,33.8114656,-84.47225460000001,86,168.86572,1480.5282,25800,10739.68,1396.1584,18.479278568964666
1929 HOLLYWOOD RD NW,Multi-Family Residential,33.8085315,-84.471503,499,979.8139,1504.1316,149700,62315.12,8100.9656,18.479278568964666
0 RIDGEWOOD CIR NW,Single Family Residential,33.8321676,-84.4468922,101,198.31905,1145.4086,30300,12612.88,1639.6743999999999,18.47927856896467
0 ABNER PL NW,Single Family Residential,33.8019959,-84.4627608,44,86.396416,1264.817,13200,5494.72,714.3136000000001,18.479278568964666
0 PAUL AVE NW,Single Family Residential,33.818851,-84.46988,65,127.631065,1467.7385,19500,8117.2,1055.236,18.479278568964666
0 RIDGEWOOD RD NW # REAR,Single Family Residential,33.8389384,-84.4470101,83,162.97505,1206.3438,24900,10365.04,1347.4552,18.479278568964666
2975 WALES AVE NW,Single Family Residential,40.8279119,-81.50265519999999,66,129.59462,1201.1229,19800,8242.08,1071.4704,18.47927856896467
0 BOLTON RD NW,Single Family Residential,33.797655,-84.4890808,31,60.8702,1252.1256,9300,3871.28,503.26640000000003,18.479278568964666
0 ALVIN DR NW,Single Family Residential,33.7888297,-84.4610216,8,15.708439,1386.9069,2400,999.04,129.8752,18.479278568964666
0 HOLLYWOOD RD NW,Single Family Residential,33.7909708,-84.4670934,304,596.92065,1391.6044,91200,37963.52,4935.2576,18.479278568964666
0 MACK DR NW,Single Family Residential,33.7904618,-84.4601751,40,78.54219,1440.9268,12000,4995.2,649.376,18.47927856896467
0 MARY GEORGE AVE NW,Single Family Residential,33.801351,-84.4617565,23,45.161762,890.5719,6900,2872.24,373.39119999999997,18.47927856896467
950 EDGEWOOD AVE,Single Family Residential,33.7581446,-84.3574094,30,58.906647,1174.1693,9000,3746.4,487.03200000000004,18.479278568964666
0 MANIGAULT ST SE,Single Family Residential,33.7509846,-84.3537818,29,56.943092,1563.3074,8700,3621.52,470.7976,18.479278568964666
0 WYLIE ST SE # REAR,Single Family Residential,33.752481,-84.3542218,35,68.72442,1543.928,10500,4370.8,568.2040000000001,18.479278568964666
0 WEATHERBY ST SE,Single Family Residential,33.753053,-84.3534871,59,115.84974,1448.7263,17700,7367.92,957.8296,18.479278568964666
0 JAMES JACKSON PKWY,Single Family Residential,33.7969295,-84.4748945,260,510.52426,1526.0747,78000,32468.8,4220.944,18.479278568964666
326 MORELAND AVE NE,Single Family Residential,33.7632589,-84.3497912,128,251.33502,1673.6138,38400,15984.64,2078.0032,18.479278568964666
0 MORELAND AVE NE,Single Family Residential,33.7536319,-84.3496808,31,60.8702,1521.4268,9300,3871.28,503.26640000000003,18.479278568964666
286 ALASKA AVE NE,Single Family Residential,33.7620796,-84.3630238,74,145.30305,1504.1746,22200,9241.12,1201.3456,18.479278568964666
0 KENDALL ST NE,Single Family Residential,38.9128695,-76.9868741,22,43.198208,1591.0521,6600,2747.36,357.15680000000003,18.479278568964666
400 MERRITTS AVE NE,Single Family Residential,33.7685725,-84.3762967,75,147.26662,1462.2294,22500,9366,1217.5800000000002,18.479278568964666
0 EDGEWOOD AVE NE,Single Family Residential,35.4133782,-80.5844832,33,64.79731,1105.4058,9900,4121.04,535.7352,18.47927856896467
0 YONGE ST SE,Single Family Residential,43.9159008,-79.4482628,323,634.2282,1328.9467,96900,40336.24,5243.7112,18.47927856896467
0 EDGEWOOD AVE NE,Single Family Residential,35.4133782,-80.5844832,33,64.79731,1105.4058,9900,4121.04,535.7352,18.47927856896467
0 LINDEN AVE NE,Single Family Residential,33.7700008,-84.38701619999999,1439,2825.5554,1552.5123,431700,179702.32,23361.301600000003,18.479278568964666
0 LINDEN AVE NE,Single Family Residential,33.7700008,-84.38701619999999,1439,2825.5554,1552.5123,431700,179702.32,23361.301600000003,18.479278568964666
521 BOULEVARD NE,Single Family Residential,33.7686069,-84.37153719999999,84,164.93861,1597.5846,25200,10489.92,1363.6896000000002,18.479278568964666
536 BOULEVARD NE,Single Family Residential,33.7690461,-84.37223019999999,120,235.62659,1664.5055,36000,14985.6,1948.1280000000002,18.479278568964666
544 ANGIER AVE NE,Single Family Residential,33.7667366,-84.36945779999999,135,265.0799,1391.5306,40500,16858.8,2191.644,18.47927856896467
402 ANGIER AVE NE,Single Family Residential,33.7665377,-84.37414969999999,6,11.781329,1609.6989,1800,749.28,97.4064,18.479278568964666
0 PINE ST NE,Single Family Residential,33.7673456,-84.3874596,1242,2438.735,1593.2916,372600,155100.96,20163.1248,18.479278568964666
0 ANGIER AVE NE,Single Family Residential,33.7664453,-84.3704291,16,31.416878,1494.8906,4800,1998.08,259.7504,18.479278568964666
427 BOULEVARD NE,Single Family Residential,33.766196,-84.371653,131,257.22568,1677.8907,39300,16359.28,2126.7064,18.479278568964666
555 RALPH MCGILL BLVD NE,Multi-Family Residential,33.7637042,-84.36938579999999,157,308.2781,1572.6997,47100,19606.16,2548.8008,18.479278568964666
0 MITCHELL ST SW,Multi-Family Residential,33.749084,-84.3896592,338,663.6815,1653.7305,101400,42209.44,5487.2272,18.479278568964666
0 JOSEPH E BOONE BLVD NW,Single Family Residential,33.7635621,-84.4364869,18,35.343987,1364.8243,5400,2247.84,292.2192,18.479278568964666
0 LAWTON ST SW,Single Family Residential,33.7389513,-84.4233632,91,178.68349,1638.6786,27300,11364.08,1477.3304,18.479278568964666
1239 WEST FAIR ST SW,Single Family Residential,33.7495796,-84.4284495,37,72.65153,1417.4823,11100,4620.56,600.6728,18.479278568964666
0 ARCADIA CIR NW,Single Family Residential,33.757156,-84.428596,7,13.7448845,1007.2106,2100,874.16,113.6408,18.479278568964666
175 STAFFORD ST NW,Single Family Residential,33.7599369,-84.4249624,444,871.81836,1468.7104,133200,55446.72,7208.073600000001,18.479278568964666
0 ROCKMART DR NW,Single Family Residential,33.7549496,-84.4293953,7,13.7448845,1162.0603,2100,874.16,113.6408,18.479278568964666
0 STAFFORD ST NW,Single Family Residential,33.7551251,-84.4258392,25,49.08887,1081.3497,7500,3122,405.86,18.479278568964666
0 ROCKMART DR NW,Single Family Residential,33.7549496,-84.4293953,7,13.7448845,1162.0603,2100,874.16,113.6408,18.479278568964666
0 LENA ST NW,Single Family Residential,33.7566649,-84.4222872,55,107.995514,1523.7778,16500,6868.4,892.8919999999999,18.47927856896467
0 BURBANK DR NW,Single Family Residential,33.7547886,-84.42793209999999,45,88.35997,1481.712,13500,5619.6,730.5480000000001,18.479278568964666
549 WEST ANTHONY ST NW,Single Family Residential,32.6858378,-97.32981970000002,31,60.8702,1688.036,9300,3871.28,503.26640000000003,18.479278568964666
590 WEST ANTHONY ST NW,Single Family Residential,32.6863448,-97.330378,50,98.17774,1793.958,15000,6244,811.72,18.479278568964666
554 WEST ANTHONY ST NW,Single Family Residential,32.6863528,-97.3299102,31,60.8702,1688.036,9300,3871.28,503.26640000000003,18.479278568964666
565 WEST ANTHONY ST NW,Single Family Residential,32.6858342,-97.3300276,31,60.8702,1688.036,9300,3871.28,503.26640000000003,18.479278568964666
526 WEST ANTHONY ST NW,Single Family Residential,32.686359,-97.3295461,26,51.052425,1422.0537,7800,3246.88,422.0944,18.479278568964666
555 WEST ANTHONY ST NW,Single Family Residential,32.6858365,-97.3298976,31,60.8702,1688.036,9300,3871.28,503.26640000000003,18.479278568964666
542 WEST ANTHONY ST NW,Single Family Residential,32.6863554,-97.32975420000001,29,56.943092,1755.2644,8700,3621.52,470.7976,18.479278568964666
522 WEST ANTHONY ST NW,Single Family Residential,32.6863599,-97.32949420000001,26,51.052425,1422.0537,7800,3246.88,422.0944,18.479278568964666
1291 ANTHONY PL NW,Multi-Family Residential,35.1098772,-106.6647035,30,58.906647,2160.6511,9000,3746.4,487.03200000000004,18.479278568964666
530 WEST ANTHONY ST NW,Single Family Residential,32.6863581,-97.3295981,26,51.052425,1422.0537,7800,3246.88,422.0944,18.479278568964666
575 WEST ANTHONY ST NW,Single Family Residential,32.6858321,-97.33015759999999,31,60.8702,1688.036,9300,3871.28,503.26640000000003,18.479278568964666
531 WEST ANTHONY ST NW,Single Family Residential,32.6858418,-97.3295857,31,60.8702,1688.036,9300,3871.28,503.26640000000003,18.479278568964666
512 WEST ANTHONY ST NW,Single Family Residential,32.6863621,-97.3293642,26,51.052425,1422.0537,7800,3246.88,422.0944,18.479278568964666
543 WEST ANTHONY ST NW,Single Family Residential,32.6858392,-97.3297417,31,60.8702,1688.036,9300,3871.28,503.26640000000003,18.479278568964666
0 ANTHONY ST NW,Single Family Residential,41.8400572,-71.051818,50,98.17774,1513.9237,15000,6244,811.72,18.479278568964666
1269 LOVELESS AVE NW,Multi-Family Residential,34.7402629,-86.6171289,39,76.578636,1395.5126,11700,4870.32,633.1416,18.479278568964666
0 NORTH AVE NW # REAR,Single Family Residential,33.7712965,-84.3874257,5,9.817774,1308.9366,1500,624.4,81.172,18.47927856896467
0 NORTH AVE NW,Single Family Residential,33.7712965,-84.3874257,5,9.817774,1308.9366,1500,624.4,81.172,18.47927856896467
0 NORTH AVE NW,Single Family Residential,33.7712965,-84.3874257,5,9.817774,1308.9366,1500,624.4,81.172,18.47927856896467
0 ANDERSON AVE NW,Single Family Residential,33.7548956,-84.4460163,104,204.2097,1183.4072,31200,12987.52,1688.3776,18.479278568964666
1565 M L KING JR DR SW,Single Family Residential,42.3189667,-87.85098160000001,28,54.979538,1320,8400,3496.64,454.5632,18.479278568964666
485 WEST LAKE AVE NW,Single Family Residential,33.768741,-84.44068999999999,32,62.833755,1360.6017,9600,3996.16,519.5008,18.479278568964666
0 WEST LAKE AVE NW,Single Family Residential,33.7541305,-84.4443435,63,123.70396,1409.6332,18900,7867.44,1022.7672,18.479278568964666
0 MARKONE ST NW,Single Family Residential,33.7698185,-84.4483457,15,29.453323,835.09906,4500,1873.2,243.51600000000002,18.479278568964666
0 TREMONT DR NW,Single Family Residential,33.7626493,-84.4492357,41,80.50575,1234.64,12300,5120.08,665.6104,18.479278568964666
0 MARKTREY PL NW,Single Family Residential,33.7705219,-84.4481362,44,86.396416,1407.2638,13200,5494.72,714.3136000000001,18.479278568964666
0 MARKONE ST NW,Single Family Residential,33.7698185,-84.4483457,15,29.453323,835.09906,4500,1873.2,243.51600000000002,18.479278568964666
0 ARLINGTON CIR NW,Single Family Residential,34.7210536,-86.6295185,44,86.396416,1513.521,13200,5494.72,714.3136000000001,18.479278568964666
0 MARKTREY PL NW,Single Family Residential,33.7705219,-84.4481362,44,86.396416,1407.2638,13200,5494.72,714.3136000000001,18.479278568964666
0 DETROIT AVE NW,Single Family Residential,33.76703,-84.4502324,46,90.323524,1475.4358,13800,5744.48,746.7823999999999,18.47927856896467
0 MARKTWO PL NW,Single Family Residential,33.7698188,-84.4469755,9,17.671993,750.74493,2700,1123.92,146.1096,18.479278568964666
1890 DONALD LEE HOLLOWELL PKWY NW,Single Family Residential,33.7744844,-84.44861929999999,4757,9340.631,1565.7133,1427100,594054.16,77227.0408,18.479278568964666
0 MARKTWO PL NW,Single Family Residential,33.7698188,-84.4469755,9,17.671993,750.74493,2700,1123.92,146.1096,18.479278568964666
0 CHARLOTTE PL NW,Single Family Residential,33.7725365,-84.4507902,20,39.271095,1331.5277,6000,2497.6,324.688,18.47927856896467
0 GRANDVIEW AVE NW,Single Family Residential,33.8087873,-84.4729459,103,202.24615,1666.7538,30900,12862.64,1672.1432,18.479278568964666
2315 DONALD LEE HOLLOWELL PKWY NW,Single Family Residential,33.7772808,-84.4607236,227,445.72696,1667.8428,68100,28347.76,3685.2088,18.47927856896467
0 HYACINTH AVE NW,Single Family Residential,-27.9020381,153.3985803,47,92.28708,1903.827,14100,5869.36,763.0168,18.479278568964666
0 ARLINGTON CIR NW,Single Family Residential,34.7210536,-86.6295185,44,86.396416,1513.521,13200,5494.72,714.3136000000001,18.479278568964666
2345 DONALD LEE HOLLOWELL PKWY NW,Single Family Residential,33.777524,-84.461992,0,0,0,0,0,0,NaN
2327 DONALD LEE HOLLOWELL PKWY NW,Single Family Residential,33.777683,-84.46140299999999,12,23.562658,1093.8167,3600,1498.56,194.8128,18.479278568964666
0 SHIRLEY PL NW,Single Family Residential,33.7551972,-84.4594286,61,119.77685,1533.3342,18300,7617.68,990.2984,18.479278568964666
0 VERBENA ST NW,Single Family Residential,38.9937696,-77.0392475,50,98.17774,1477.2429,15000,6244,811.72,18.479278568964666
0 SEWANEE AVE NW,Single Family Residential,33.7550305,-84.4661728,69,135.48529,1543.478,20700,8616.72,1120.1735999999999,18.47927856896467
0 SEWANEE AVE NW,Single Family Residential,33.7550305,-84.4661728,69,135.48529,1543.478,20700,8616.72,1120.1735999999999,18.47927856896467
0 SEWANEE AVE NW,Single Family Residential,33.7550305,-84.4661728,69,135.48529,1543.478,20700,8616.72,1120.1735999999999,18.47927856896467
3114 COLLIER DR NW,Single Family Residential,33.7660667,-84.4909169,2,3.9271097,1289.4634,600,249.76,32.4688,18.479278568964666
0 PANSY ST NW,Single Family Residential,33.7578916,-84.4595474,25,49.08887,961.42126,7500,3122,405.86,18.479278568964666
0 ELEANOR TER NW,Single Family Residential,33.7772523,-84.4857603,122,239.5537,1543.1587,36600,15235.36,1980.5968,18.479278568964666
0 WATERFORD RD NW,Single Family Residential,33.7690591,-84.484446,47,92.28708,1151.9557,14100,5869.36,763.0168,18.479278568964666
338 COLLIER DR NW,Single Family Residential,33.7644705,-84.47698559999999,91,178.68349,1426.4308,27300,11364.08,1477.3304,18.479278568964666
0 WATERFORD RD NW,Single Family Residential,33.7690591,-84.484446,47,92.28708,1151.9557,14100,5869.36,763.0168,18.479278568964666
0 WATERFORD RD NW,Single Family Residential,33.7690591,-84.484446,47,92.28708,1151.9557,14100,5869.36,763.0168,18.479278568964666
0 HORTENSE WAY NW,Single Family Residential,33.7763447,-84.4397509,41,80.50575,1511.1853,12300,5120.08,665.6104,18.479278568964666
0 WATERFORD RD NW,Single Family Residential,33.7690591,-84.484446,47,92.28708,1151.9557,14100,5869.36,763.0168,18.479278568964666
0 WATERFORD RD NW,Single Family Residential,33.7690591,-84.484446,47,92.28708,1151.9557,14100,5869.36,763.0168,18.479278568964666
902 WOOD ST NW,Single Family Residential,33.7796328,-84.45878189999999,4,7.8542194,1630.1095,1200,499.52,64.9376,18.479278568964666
0 LARKIN ST SW,Single Family Residential,33.7480297,-84.4071493,88,172.79283,1622.3314,26400,10989.44,1428.6272000000001,18.479278568964666
0 ROSE CIR SW,Single Family Residential,33.8058638,-84.5990617,3,5.8906646,1220.8618,900,374.64,48.7032,18.479278568964666
0 GROVE PARK PL NW # REAR,Single Family Residential,33.7767787,-84.43730649999999,39,76.578636,1517.1763,11700,4870.32,633.1416,18.479278568964666
0 GROVE PARK PL NW # REAR,Single Family Residential,33.7767787,-84.43730649999999,39,76.578636,1517.1763,11700,4870.32,633.1416,18.479278568964666
0 PEEPLES ST SW,Single Family Residential,33.7524861,-84.4205539,17,33.380432,1215.1503,5100,2122.96,275.9848,18.479278568964666
0 OAK ST SW,Single Family Residential,33.7407503,-84.4226998,36,70.68797,1425.7173,10800,4495.68,584.4384,18.479278568964666
0 WHITE ST SW,Single Family Residential,35.3982069,-80.5997768,96,188.50127,1669.243,28800,11988.48,1558.5024,18.479278568964666
0 ROSE CIR SW,Multi-Family Residential,33.8058638,-84.5990617,3,5.8906646,1220.8618,900,374.64,48.7032,18.479278568964666
0 RALPH D ABERNATHY BLVD SW,Single Family Residential,33.7373249,-84.3899933,60,117.81329,1551.9735,18000,7492.8,974.0640000000001,18.479278568964666
0 ROSE CIR SW,Single Family Residential,33.8058638,-84.5990617,3,5.8906646,1220.8618,900,374.64,48.7032,18.479278568964666
0 ROSE CIR SW,Single Family Residential,33.8058638,-84.5990617,3,5.8906646,1220.8618,900,374.64,48.7032,18.479278568964666
0 ROSE CIR SW,Single Family Residential,33.8058638,-84.5990617,3,5.8906646,1220.8618,900,374.64,48.7032,18.479278568964666
0 JOSEPH E LOWERY BLVD,Single Family Residential,33.7548792,-84.417735,22,43.198208,1611.264,6600,2747.36,357.15680000000003,18.479278568964666
1305 OAKLAND DR SW,Single Family Residential,33.7184556,-84.4287947,82,161.0115,1113.2461,24600,10240.16,1331.2208,18.479278568964666
0 LEE ST SW,Multi-Family Residential,33.7227913,-84.4225396,94,184.57416,1633.6853,28200,11738.72,1526.0336,18.479278568964666
1447 LEE ST SW,Multi-Family Residential,33.7157084,-84.4262318,457,897.34454,1659.9891,137100,57070.16,7419.120800000001,18.479278568964666
0 LEE ST SW,Multi-Family Residential,33.7227913,-84.4225396,94,184.57416,1633.6853,28200,11738.72,1526.0336,18.479278568964666
0 PRINCESS AVE SW,Single Family Residential,35.4030539,-80.5790854,82,161.0115,1662.3678,24600,10240.16,1331.2208,18.479278568964666
986 GASTON ST SW,Single Family Residential,33.728252,-84.43605590000001,34,66.760864,1027.429,10200,4245.92,551.9696,18.479278568964666
0 BRIDGES AVE SW,Single Family Residential,33.7265087,-84.4305997,43,84.43286,1400.3057,12900,5369.84,698.0792,18.479278568964666
0 GREENWOOD ST SW,Single Family Residential,33.5658979,-81.7360996,48,94.25063,1547.734,14400,5994.24,779.2512,18.479278568964666
1375 BRIDGES AVE SW,Single Family Residential,33.7267889,-84.432801,37,72.65153,1429.6371,11100,4620.56,600.6728,18.479278568964666
1347 GRAYMONT DR SW,Single Family Residential,33.7177858,-84.43678489999999,16,31.416878,1300.1752,4800,1998.08,259.7504,18.479278568964666
0 BRIDGES AVE SW,Single Family Residential,33.7265087,-84.4305997,43,84.43286,1400.3057,12900,5369.84,698.0792,18.479278568964666
0 MONTREAT AVE SW,Single Family Residential,33.7293101,-84.4316589,17,33.380432,1536.8113,5100,2122.96,275.9848,18.479278568964666
1442 RICHLAND RD SW,Single Family Residential,33.7302977,-84.4349424,27,53.01598,1007.1271,8100,3371.76,438.32880000000006,18.479278568964666
0 OAKLAND DR SW,Single Family Residential,33.7236826,-84.4273897,42,82.46931,1586.0332,12600,5244.96,681.8448000000001,18.479278568964666
0 GREENWICH ST SW,Single Family Residential,33.7438944,-84.4297435,11,21.599104,704.8202,3300,1373.68,178.57840000000002,18.479278568964666
0 ROGERS AVE SW,Single Family Residential,33.7373376,-84.4460183,10,19.635548,997.67596,3000,1248.8,162.344,18.47927856896467
0 AVON AVE SW,Single Family Residential,33.7223854,-84.4317729,45,88.35997,1056.9395,13500,5619.6,730.5480000000001,18.479278568964666
0 SOUTH OLYMPIAN WAY,Single Family Residential,38.8319732,-104.8507565,117,229.73592,2005.8495,35100,14610.96,1899.4248,18.479278568964666
0 CASCADE AVE SW,Single Family Residential,33.7301491,-84.4405023,20,39.271095,1051.4519,6000,2497.6,324.688,18.47927856896467
0 WILLOWBROOK DR SW,Single Family Residential,33.9177505,-84.6154337,74,145.30305,1501.0594,22200,9241.12,1201.3456,18.479278568964666
0 WILLOWBROOK DR SW,Single Family Residential,33.9177505,-84.6154337,74,145.30305,1501.0594,22200,9241.12,1201.3456,18.479278568964666
0 VENETIAN DR SW,Single Family Residential,33.7147465,-84.4500353,1693,3324.2983,1538.7163,507900,211421.84,27484.839200000002,18.479278568964666
0 CAMPBELLTON RD SW,Single Family Residential,33.695262,-84.524129,61,119.77685,1367.3949,18300,7617.68,990.2984,18.479278568964666
0 CASCADE RD SW,Single Family Residential,33.7230806,-84.5034739,42,82.46931,1583.311,12600,5244.96,681.8448000000001,18.479278568964666
1053 CASCADE CIR SW,Single Family Residential,33.7298599,-84.4481158,11,21.599104,922.9438,3300,1373.68,178.57840000000002,18.479278568964666
0 BEECHER RD SW,Single Family Residential,33.7302185,-84.4603932,55,107.995514,1243.722,16500,6868.4,892.8919999999999,18.47927856896467
0 RECTOR DR SW,Single Family Residential,33.7322343,-84.4555789,34,66.760864,1085.0881,10200,4245.92,551.9696,18.479278568964666
0 EDGEWATER DR SW,Single Family Residential,33.7315637,-84.4633144,47,92.28708,888.2324,14100,5869.36,763.0168,18.479278568964666
0 FLEETWOOD CIR SW,Single Family Residential,33.7364475,-84.4619991,64,125.66751,1372.0657,19200,7992.32,1039.0016,18.479278568964666
0 FLEETWOOD CIR SW,Single Family Residential,33.7364475,-84.4619991,64,125.66751,1372.0657,19200,7992.32,1039.0016,18.479278568964666
0 BEECHER CIR SW,Single Family Residential,33.7305355,-84.4610342,49,96.21419,1098.2673,14700,6119.12,795.4856,18.47927856896467
0 FLEETWOOD CIR SW,Single Family Residential,33.7364475,-84.4619991,64,125.66751,1372.0657,19200,7992.32,1039.0016,18.479278568964666
0 BEECHER RD SW,Single Family Residential,33.7302185,-84.4603932,55,107.995514,1243.722,16500,6868.4,892.8919999999999,18.47927856896467
0 VENETIAN DR SW,Single Family Residential,33.7147465,-84.4500353,1693,3324.2983,1538.7163,507900,211421.84,27484.839200000002,18.479278568964666
0 DELOWE DR SW,Single Family Residential,33.7157677,-84.4629144,29,56.943092,1190.7169,8700,3621.52,470.7976,18.479278568964666
0 VENETIAN DR SW,Single Family Residential,33.7147465,-84.4500353,1693,3324.2983,1538.7163,507900,211421.84,27484.839200000002,18.479278568964666
2265 CAMPBELLTON RD SW,Single Family Residential,33.7053579,-84.464094,68,133.52173,1611.4689,20400,8491.84,1103.9392,18.479278568964666
0 BENT CREEK WAY SW,Multi-Family Residential,33.7008901,-84.4660753,391,767.74994,1681.4337,117300,48828.08,6347.6504,18.479278568964666
0 CAMPBELLTON RD SW,Single Family Residential,33.695262,-84.524129,61,119.77685,1367.3949,18300,7617.68,990.2984,18.479278568964666
1841 WELLS DR SW,Single Family Residential,33.7046999,-84.4692426,49,96.21419,1188.959,14700,6119.12,795.4856,18.47927856896467
2443 IVYDALE DR SW,Single Family Residential,33.6987345,-84.4686364,31,60.8702,1181.7477,9300,3871.28,503.26640000000003,18.479278568964666
1979 WELLS DR SW,Single Family Residential,33.7012495,-84.46880279999999,26,51.052425,1238.8546,7800,3246.88,422.0944,18.479278568964666
0 RENA CIR SW,Single Family Residential,33.7011901,-84.4716949,39,76.578636,1135.3512,11700,4870.32,633.1416,18.479278568964666
1886 SANDRINGHAM DR SW,Single Family Residential,33.7047664,-84.4726281,64,125.66751,1460.4222,19200,7992.32,1039.0016,18.479278568964666
0 WELLS DR SW,Single Family Residential,33.7032381,-84.4688182,222,435.90918,1232.9929,66600,27723.36,3604.0368000000003,18.479278568964666
0 WELLS DR SW,Single Family Residential,33.7032381,-84.4688182,222,435.90918,1232.9929,66600,27723.36,3604.0368000000003,18.479278568964666
0 LANDRUM DR SW,Single Family Residential,33.7062926,-84.481724,30,58.906647,1494.0587,9000,3746.4,487.03200000000004,18.479278568964666
0 ARTHUR LANGFORD PKWY,Single Family Residential,33.6980841,-84.4488175,124,243.4808,1547.8837,37200,15485.12,2013.0656000000001,18.479278568964666
1963 WELLS DR SW,Single Family Residential,33.7016822,-84.4691612,15,29.453323,1052.9467,4500,1873.2,243.51600000000002,18.479278568964666
2023 WELLS DR SW,Single Family Residential,33.7004411,-84.4678301,35,68.72442,910.98596,10500,4370.8,568.2040000000001,18.479278568964666
0 LANDRUM DR SW,Single Family Residential,33.7062926,-84.481724,30,58.906647,1494.0587,9000,3746.4,487.03200000000004,18.479278568964666
0 CASCADE RD SW,Single Family Residential,33.7230806,-84.5034739,42,82.46931,1583.311,12600,5244.96,681.8448000000001,18.479278568964666
0 CASCADE RD SW,Single Family Residential,33.7230806,-84.5034739,42,82.46931,1583.311,12600,5244.96,681.8448000000001,18.479278568964666
0 SANDTOWN RD SW,Single Family Residential,33.9506974,-84.6411038,71,139.4124,1604.952,21300,8866.48,1152.6424,18.47927856896467
0 CASCADE RD SW,Single Family Residential,33.7230806,-84.5034739,42,82.46931,1583.311,12600,5244.96,681.8448000000001,18.479278568964666
0 WILLIS MILL RD SW,Single Family Residential,33.7517781,-84.466658,97,190.46483,1647.9943,29100,12113.36,1574.7368000000001,18.479278568964666
0 FALCON DR SW # REAR,Single Family Residential,33.7320103,-84.4754014,55,107.995514,978.323,16500,6868.4,892.8919999999999,18.47927856896467
0 ORIOLE DR SW,Single Family Residential,33.727025,-84.4735062,50,98.17774,1437.7306,15000,6244,811.72,18.479278568964666
0 WILLIS MILL RD SW,Single Family Residential,33.7517781,-84.466658,97,190.46483,1647.9943,29100,12113.36,1574.7368000000001,18.479278568964666
0 WILLIS MILL RD SW,Single Family Residential,33.7517781,-84.466658,97,190.46483,1647.9943,29100,12113.36,1574.7368000000001,18.479278568964666
0 FLAMINGO DR SW # REAR,Single Family Residential,33.7786376,-84.5818855,31,60.8702,1173.1006,9300,3871.28,503.26640000000003,18.479278568964666
0 FLAMINGO DR SW,Single Family Residential,33.9528805,-78.3401687,48,94.25063,1510.0752,14400,5994.24,779.2512,18.479278568964666
0 CATIVO DR SW,Single Family Residential,33.7425194,-84.4715721,16,31.416878,1024.1805,4800,1998.08,259.7504,18.479278568964666
201 PEYTON RD SW,Single Family Residential,33.7485627,-84.4760385,11,21.599104,993.78503,3300,1373.68,178.57840000000002,18.479278568964666
0 PEYTON RD SW # REAR,Single Family Residential,33.7520602,-84.4681275,91,178.68349,1594.8324,27300,11364.08,1477.3304,18.479278568964666
0 FIELDING LN SW,Single Family Residential,33.7441251,-84.484735,101,198.31905,1401.1165,30300,12612.88,1639.6743999999999,18.47927856896467
0 HARLAN RD SW,Single Family Residential,33.75443560000001,-84.4811582,217,426.0914,1462.6715,65100,27098.96,3522.8648,18.47927856896467
0 PEYTON RD SW # REAR,Single Family Residential,33.7520602,-84.4681275,91,178.68349,1594.8324,27300,11364.08,1477.3304,18.479278568964666
0 HARBIN RD SW,Single Family Residential,33.7100477,-84.482699,38,74.61508,835.03595,11400,4745.44,616.9072,18.479278568964666
615 PEYTON RD SW,Single Family Residential,33.739265,-84.48071499999999,57,111.92263,1062.892,17100,7118.16,925.3608,18.479278568964666
0 CAMPBELLTON RD SW,Multi-Family Residential,33.695262,-84.524129,61,119.77685,1367.3949,18300,7617.68,990.2984,18.479278568964666
0 HARBIN RD SW,Single Family Residential,33.7100477,-84.482699,38,74.61508,835.03595,11400,4745.44,616.9072,18.479278568964666
0 HARBIN RD SW,Single Family Residential,33.7100477,-84.482699,38,74.61508,835.03595,11400,4745.44,616.9072,18.479278568964666
0 LAURENS WAY SW,Single Family Residential,33.7104455,-84.4807109,78,153.15727,1295.4492,23400,9740.64,1266.2832,18.479278568964666
2660 LAURENS CIR SW,Single Family Residential,33.7099173,-84.4776577,109,214.02748,1428.1212,32700,13611.92,1769.5496,18.479278568964666
0 ADAMS DR SW,Single Family Residential,33.7139416,-84.4864745,118,231.69948,1420.928,35400,14735.84,1915.6592,18.479278568964666
0 MC MURRAY DR SW,Single Family Residential,33.7040188,-84.4908887,34,66.760864,900.8496,10200,4245.92,551.9696,18.479278568964666
3181 HOGAN RD SW,Single Family Residential,33.6791935,-84.4914337,359,704.9162,1657.1461,107700,44831.92,5828.1496,18.47927856896467
3090 STONE RD SW,Single Family Residential,33.671404,-84.495881,50,98.17774,1465.6978,15000,6244,811.72,18.479278568964666
0 ADAMS DR SW,Single Family Residential,33.7139416,-84.4864745,118,231.69948,1420.928,35400,14735.84,1915.6592,18.479278568964666
0 ADAMS DR SW,Single Family Residential,33.7139416,-84.4864745,118,231.69948,1420.928,35400,14735.84,1915.6592,18.479278568964666
0 ADAMS DR SW,Single Family Residential,33.7139416,-84.4864745,118,231.69948,1420.928,35400,14735.84,1915.6592,18.479278568964666
0 LYNN CIR SW,Single Family Residential,33.7351827,-84.486442,45,88.35997,1217.9591,13500,5619.6,730.5480000000001,18.479278568964666
0 BENJAMIN E MAYS DR SW,Single Family Residential,33.7322447,-84.4872137,137,269.00702,1641.0692,41100,17108.56,2224.1128000000003,18.479278568964666
0 REBECCA DR SW,Single Family Residential,33.9182224,-84.55279809999999,68,133.52173,1411.9086,20400,8491.84,1103.9392,18.479278568964666
0 LYNHURST CIR SW,Single Family Residential,33.7468879,-84.4879713,75,147.26662,1236.8262,22500,9366,1217.5800000000002,18.479278568964666
0 LYNHURST DR SW REAR,Single Family Residential,33.7515172,-84.4880153,12,23.562658,1562.8851,3600,1498.56,194.8128,18.479278568964666
0 LYNHURST DR SW REAR,Single Family Residential,33.7515172,-84.4880153,12,23.562658,1562.8851,3600,1498.56,194.8128,18.479278568964666
0 WESTPORT WAY SW,Single Family Residential,33.7441496,-84.4915026,48,94.25063,979.77203,14400,5994.24,779.2512,18.479278568964666
3201 M L KING JR DR NW,Single Family Residential,42.3195028,-87.87661709999999,53,104.068405,1534,15900,6618.64,860.4232000000001,18.479278568964666
0 LYNHURST DR SW,Single Family Residential,33.7515172,-84.4880153,12,23.562658,1562.8851,3600,1498.56,194.8128,18.479278568964666
0 WESTPORT WAY SW,Single Family Residential,33.7441496,-84.4915026,48,94.25063,979.77203,14400,5994.24,779.2512,18.479278568964666
0 LYNHURST DR SW,Single Family Residential,33.7515172,-84.4880153,12,23.562658,1562.8851,3600,1498.56,194.8128,18.479278568964666
0 CASCADE RD SW # REAR,Single Family Residential,33.7230806,-84.5034739,42,82.46931,1583.311,12600,5244.96,681.8448000000001,18.479278568964666
0 PERIMETER HWY SW,Single Family Residential,49.8804005,-97.3255332,37,72.65153,1566.4457,11100,4620.56,600.6728,18.479278568964666
0 CASCADE FALLS DR SW,Single Family Residential,33.7186349,-84.4952328,50,98.17774,1564.1957,15000,6244,811.72,18.479278568964666
0 WELLS DR SW,Single Family Residential,33.7032381,-84.4688182,222,435.90918,1232.9929,66600,27723.36,3604.0368000000003,18.479278568964666
2029 WELLS DR SW,Single Family Residential,33.7003515,-84.4676539,6,11.781329,869.35785,1800,749.28,97.4064,18.479278568964666
1690 DELOWE DR SW,Single Family Residential,33.7093379,-84.45889849999999,19,37.30754,1044.9106,5700,2372.72,308.4536,18.479278568964666
0 HARWELL RD NW,Single Family Residential,33.753201,-84.49287609999999,86,168.86572,1520.7476,25800,10739.68,1396.1584,18.479278568964666
0 FAIRBURN RD NW,Single Family Residential,33.7595758,-84.5054191,88,172.79283,1625.1703,26400,10989.44,1428.6272000000001,18.479278568964666
760 BOLTON RD NW,Single Family Residential,33.77649299999999,-84.504002,2244,4406.2173,1611.212,673200,280230.72,36429.993599999994,18.47927856896467
0 NORTH CAMP CREEK PKWY # SW,Single Family Residential,33.6703608,-84.5060471,74,145.30305,1491.0337,22200,9241.12,1201.3456,18.479278568964666
0 FAIRBURN RD NW,Single Family Residential,33.7595758,-84.5054191,88,172.79283,1625.1703,26400,10989.44,1428.6272000000001,18.479278568964666
31 BROWNLEE RD SW,Single Family Residential,33.7564137,-84.49936389999999,388,761.8593,1539.618,116400,48453.44,6298.9472000000005,18.479278568964666
3450 BENJAMIN E MAYS DR SW,Single Family Residential,33.733733,-84.50393849999999,6771,13295.2295,1584.6378,2031300,845562.48,109923.12240000001,18.479278568964666
2760 ALEXANDRIA DR SW,Single Family Residential,33.679168,-84.512,62,121.7404,1381.6465,18600,7742.56,1006.5328000000001,18.479278568964666
0 FAIRBURN RD SW,Multi-Family Residential,33.7587783,-84.505142,87,170.82927,1542.5106,26100,10864.56,1412.3928,18.479278568964666
0 STONE RD # SW,Single Family Residential,33.6769088,-84.5047699,59,115.84974,1331.684,17700,7367.92,957.8296,18.479278568964666
0 FAIRBURN RD SW,Multi-Family Residential,33.7587783,-84.505142,87,170.82927,1542.5106,26100,10864.56,1412.3928,18.479278568964666
0 CAMPBELLTON RD SW,Single Family Residential,33.695262,-84.524129,61,119.77685,1367.3949,18300,7617.68,990.2984,18.479278568964666
3881 MELVIN DR SW,Single Family Residential,33.70853450000001,-84.51427860000001,352,691.1713,1592.9933,105600,43957.76,5714.5088000000005,18.479278568964666
0 FAIRBURN RD SW REAR,Single Family Residential,33.7587783,-84.505142,87,170.82927,1542.5106,26100,10864.56,1412.3928,18.479278568964666
0 FAIRBURN RD SW,Single Family Residential,33.7587783,-84.505142,87,170.82927,1542.5106,26100,10864.56,1412.3928,18.479278568964666
0 CELESTE LN,Single Family Residential,28.262943,-82.7056089,30,58.906647,1647.4642,9000,3746.4,487.03200000000004,18.479278568964666
0 CASCADE RD SW,Single Family Residential,33.7230806,-84.5034739,42,82.46931,1583.311,12600,5244.96,681.8448000000001,18.479278568964666
0 GINNIS RD,Single Family Residential,33.731635,-84.5114623,16,31.416878,1675.8789,4800,1998.08,259.7504,18.479278568964666
300 WILSON MILL RD SW,Single Family Residential,33.7532382,-84.5125557,45,88.35997,1282.1553,13500,5619.6,730.5480000000001,18.479278568964666
3691 COLLIER DR NW,Single Family Residential,33.7697432,-84.50654569999999,207,406.45584,1410.3977,62100,25850.16,3360.5208000000002,18.479278568964666
0 BOLTON RD REAR,Single Family Residential,53.7336231,-2.4903893,382,750.07794,874.6751,114600,47704.16,6201.540800000001,18.479278568964666
3711 M L KING JR DR NW,Single Family Residential,42.3195019,-87.8801247,18,35.343987,1426,5400,2247.84,292.2192,18.479278568964666
280 WILSON MILL RD SW,Single Family Residential,33.7553006,-84.5137895,2358,4630.0625,1598.6968,707400,294467.04,38280.7152,18.47927856896467
0 CAMPBELLTON RD SW,Multi-Family Residential,33.695262,-84.524129,61,119.77685,1367.3949,18300,7617.68,990.2984,18.479278568964666
0 WILSON MILL RD SW # R,Single Family Residential,33.7382016,-84.5343006,14,27.489769,1194.7019,4200,1748.32,227.2816,18.479278568964666
0 WILSON MILL RD SW,Single Family Residential,33.7382016,-84.5343006,14,27.489769,1194.7019,4200,1748.32,227.2816,18.479278568964666
0 CAMPBELLTON RD SW,Multi-Family Residential,33.695262,-84.524129,61,119.77685,1367.3949,18300,7617.68,990.2984,18.479278568964666
0 WILSON MILL RD SW,Single Family Residential,33.7382016,-84.5343006,14,27.489769,1194.7019,4200,1748.32,227.2816,18.479278568964666
0 BOULDER PARK DR SW,Single Family Residential,33.7467023,-84.5159117,53,104.068405,1038.8871,15900,6618.64,860.4232000000001,18.479278568964666
0 BOULDER PARK RD SW,Single Family Residential,36.0972457,-80.2019512,654,1284.1649,1562.711,196200,81671.52,10617.297600000002,18.479278568964666
4610 TUCSON TRL SW,Single Family Residential,33.6896678,-84.5389282,51,100.1413,1094.3433,15300,6368.88,827.9544000000001,18.479278568964666
4531 CAMPBELLTON RD SW,Multi-Family Residential,33.6960895,-84.5364027,30,58.906647,1435.0778,9000,3746.4,487.03200000000004,18.479278568964666
0 WILSON JAMES RD SW,Multi-Family Residential,33.6973942,-84.5372145,32,62.833755,823.7567,9600,3996.16,519.5008,18.479278568964666
0 BAKERS FERRY RD SW # REAR,Single Family Residential,33.7472068,-84.5411996,307,602.81134,1562.8325,92100,38338.16,4983.960800000001,18.479278568964666
0 BAKERS FERRY RD SW # REAR,Single Family Residential,33.7472068,-84.5411996,307,602.81134,1562.8325,92100,38338.16,4983.960800000001,18.479278568964666
1835 HENRY THOMAS DR SE,Single Family Residential,33.704495,-84.35667749999999,467,916.9801,1596.0238,140100,58318.96,7581.4648,18.47927856896467
0 STONEWALL DR SE,Single Family Residential,33.6909851,-84.3585139,33,64.79731,957.63763,9900,4121.04,535.7352,18.47927856896467
0 SANTA FE TRL SW,Single Family Residential,33.8748975,-84.580964,57,111.92263,1381.371,17100,7118.16,925.3608,18.479278568964666
0 NATHAM DR SE,Single Family Residential,33.6893545,-84.3579239,34,66.760864,1626.9901,10200,4245.92,551.9696,18.479278568964666
0 STONEWALL DR SE,Single Family Residential,33.6909851,-84.3585139,33,64.79731,957.63763,9900,4121.04,535.7352,18.47927856896467
0 DANNER ST SE,Single Family Residential,33.7218275,-84.3520566,48,94.25063,1413.2266,14400,5994.24,779.2512,18.479278568964666
0 GENEVA DR SE,Single Family Residential,33.7101376,-84.353912,4,7.8542194,1382.5498,1200,499.52,64.9376,18.479278568964666
0 WOODLAND AVE SE,Single Family Residential,40.7788821,-81.5153878,55,107.995514,1433.4095,16500,6868.4,892.8919999999999,18.47927856896467
0 WOODLAND AVE SE,Single Family Residential,40.7788821,-81.5153878,55,107.995514,1433.4095,16500,6868.4,892.8919999999999,18.47927856896467
0 SLOAN CIR SE,Single Family Residential,33.7183923,-84.3578855,13,25.526213,865.478,3900,1623.44,211.0472,18.479278568964666
0 SLOAN CIR SE,Single Family Residential,33.7183923,-84.3578855,13,25.526213,865.478,3900,1623.44,211.0472,18.479278568964666
0 PONTIAC PL SE,Single Family Residential,33.7128481,-84.3565956,14,27.489769,901.9338,4200,1748.32,227.2816,18.479278568964666
0 UNITED AVE SE,Single Family Residential,33.7269433,-84.3595221,112,219.91815,1498.2595,33600,13986.56,1818.2528,18.479278568964666
0 UNITED AVE SE,Single Family Residential,33.7269433,-84.3595221,112,219.91815,1498.2595,33600,13986.56,1818.2528,18.479278568964666
884 UNITED AVE SE,Single Family Residential,33.7273047,-84.3609941,30,58.906647,1493.844,9000,3746.4,487.03200000000004,18.479278568964666
820 DELMAR CT SE,Single Family Residential,33.732874,-84.359669,19,37.30754,1262.7568,5700,2372.72,308.4536,18.479278568964666
1085 AVONDALE AVE SE,Multi-Family Residential,33.7250624,-84.362965,56,109.959076,1267.581,16800,6993.28,909.1264,18.479278568964666
0 BENTEEN AVE SE,Single Family Residential,33.7170957,-84.3666714,21,41.234653,1459.6764,6300,2622.48,340.92240000000004,18.479278568964666
878 UNITED AVE SE,Single Family Residential,33.727406,-84.361037,30,58.906647,1493.844,9000,3746.4,487.03200000000004,18.479278568964666
0 LESTER AVE SE,Multi-Family Residential,42.1132007,-75.9500819,96,188.50127,1388.3953,28800,11988.48,1558.5024,18.479278568964666
0 BOULEVARD SE,Single Family Residential,33.7543083,-84.3721486,13,25.526213,1593.5975,3900,1623.44,211.0472,18.479278568964666
0 BENTEEN AVE SE,Single Family Residential,33.7170957,-84.3666714,21,41.234653,1459.6764,6300,2622.48,340.92240000000004,18.479278568964666
0 SLOAN CIR SE,Single Family Residential,33.7183923,-84.3578855,13,25.526213,865.478,3900,1623.44,211.0472,18.479278568964666
0 CUSTER AVE SE,Single Family Residential,33.7162817,-84.3548497,25,49.08887,1495.0482,7500,3122,405.86,18.479278568964666
0 SLOAN CIR SE,Single Family Residential,33.7183923,-84.3578855,13,25.526213,865.478,3900,1623.44,211.0472,18.479278568964666
0 SLOAN CIR SE,Single Family Residential,33.7183923,-84.3578855,13,25.526213,865.478,3900,1623.44,211.0472,18.479278568964666
0 SLOAN CIR SE,Single Family Residential,33.7183923,-84.3578855,13,25.526213,865.478,3900,1623.44,211.0472,18.479278568964666
0 SLOAN CIR SE,Single Family Residential,33.7183923,-84.3578855,13,25.526213,865.478,3900,1623.44,211.0472,18.479278568964666
0 CUSTER AVE SE,Single Family Residential,33.7162817,-84.3548497,25,49.08887,1495.0482,7500,3122,405.86,18.479278568964666
0 SLOAN CIR,Single Family Residential,42.1739749,-71.05605,55,107.995514,1228.3369,16500,6868.4,892.8919999999999,18.47927856896467
0 SLOAN CIR SE,Single Family Residential,33.7183923,-84.3578855,13,25.526213,865.478,3900,1623.44,211.0472,18.479278568964666
0 SLOAN CIR SE,Single Family Residential,33.7183923,-84.3578855,13,25.526213,865.478,3900,1623.44,211.0472,18.479278568964666
0 THOMASVILLE BLVD SE,Single Family Residential,33.7021804,-84.3628806,55,107.995514,1411.7891,16500,6868.4,892.8919999999999,18.47927856896467
0 NEW TOWN CIR SE,Single Family Residential,33.7087716,-84.3620262,17,33.380432,1622.104,5100,2122.96,275.9848,18.479278568964666
914 SLOAN CIR SE,Single Family Residential,33.7184383,-84.35874380000001,229,449.65405,1517.5522,68700,28597.52,3717.6776,18.479278568964666
0 NEW TOWN CIR SE,Single Family Residential,33.7087716,-84.3620262,17,33.380432,1622.104,5100,2122.96,275.9848,18.479278568964666
1410 CASANOVA ST SE,Single Family Residential,33.715653,-84.36329599999999,86,168.86572,1660.1923,25800,10739.68,1396.1584,18.479278568964666
0 LEWIS RD SE,Single Family Residential,33.6988221,-84.3614116,12,23.562658,1279.564,3600,1498.56,194.8128,18.479278568964666
790 KNOX DR SE # REAR,Single Family Residential,33.699401,-84.36266309999999,13,25.526213,1301.3646,3900,1623.44,211.0472,18.479278568964666
0 KNOX DR SE,Single Family Residential,33.9145059,-84.5514202,61,119.77685,1571.8071,18300,7617.68,990.2984,18.479278568964666
1965 LEWIS RD SE,Single Family Residential,33.700739,-84.364088,24,47.125317,1352.3243,7200,2997.12,389.6256,18.479278568964666
0 KNOX DR SE,Single Family Residential,33.9145059,-84.5514202,61,119.77685,1571.8071,18300,7617.68,990.2984,18.479278568964666
0 LEWIS RD SE,Single Family Residential,33.6988221,-84.3614116,12,23.562658,1279.564,3600,1498.56,194.8128,18.479278568964666
632 MC WILLIAMS RD SE,Single Family Residential,33.68917,-84.3681975,47,92.28708,1623.0383,14100,5869.36,763.0168,18.479278568964666
0 MARTIN CT SE,Single Family Residential,33.9436993,-84.5191769,24,47.125317,1470.455,7200,2997.12,389.6256,18.479278568964666
0 JONESBORO RD SE # REAR,Single Family Residential,33.6792615,-84.3683543,317,622.4469,1686.4954,95100,39586.96,5146.3048,18.479278568964666
0 HARGIS ST SE,Single Family Residential,33.6874217,-84.362344,12,23.562658,1237.055,3600,1498.56,194.8128,18.479278568964666
3604 RUBY H HARPER BLVD SE,Single Family Residential,33.655668,-84.37993999999999,9,17.671993,1203.5282,2700,1123.92,146.1096,18.479278568964666
0 MC WILLIAMS RD SE,Single Family Residential,33.6876133,-84.3685257,190,373.0754,1692.3677,57000,23727.2,3084.536,18.479278568964666
0 HARGIS ST SE,Single Family Residential,33.6874217,-84.362344,12,23.562658,1237.055,3600,1498.56,194.8128,18.479278568964666
600 MC WILLIAMS RD SE,Single Family Residential,33.6895295,-84.3665274,338,663.6815,1600.9166,101400,42209.44,5487.2272,18.479278568964666
0 PERIMETER HWY SE,Single Family Residential,49.8804005,-97.3255332,37,72.65153,1566.4457,11100,4620.56,600.6728,18.479278568964666
330 SIMON ST SE,Single Family Residential,33.655201,-84.3794999,9,17.671993,1203.5282,2700,1123.92,146.1096,18.479278568964666
360 SIMON ST SE,Single Family Residential,33.6551789,-84.378599,56,109.959076,1404.6404,16800,6993.28,909.1264,18.479278568964666
393 MCCOY RD SE,Single Family Residential,28.4517239,-81.3171092,277,543.9047,1699.2463,83100,34591.76,4496.928800000001,18.479278568964666
410 SIMON ST SE,Single Family Residential,33.655132,-84.376845,4032,7917.053,1583.7075,1209600,503516.16,65457.1008,18.479278568964666
441 MCCOY RD SE,Single Family Residential,28.4517239,-81.3171092,277,543.9047,1699.2463,83100,34591.76,4496.928800000001,18.479278568964666
376 SIMON ST SE,Single Family Residential,33.655166,-84.378098,56,109.959076,1404.6404,16800,6993.28,909.1264,18.479278568964666
3610 RUBY H HARPER BLVD SE,Single Family Residential,33.6555589,-84.380224,9,17.671993,1203.5282,2700,1123.92,146.1096,18.479278568964666
0 SIMON ST SE,Single Family Residential,47.404887,-120.2884663,302,592.9936,1553.9832,90600,37713.76,4902.7888,18.479278568964666
0 JONESBORO RD SE,Single Family Residential,33.6792615,-84.3683543,317,622.4469,1686.4954,95100,39586.96,5146.3048,18.479278568964666
363 FLYNN RD SE,Single Family Residential,43.2864612,-77.7152751,11,21.599104,882.20233,3300,1373.68,178.57840000000002,18.479278568964666
399 SIMON ST SE,Single Family Residential,33.654653,-84.377419,4032,7917.053,1583.7075,1209600,503516.16,65457.1008,18.479278568964666
405 MCCOY RD SE,Single Family Residential,28.4517239,-81.3171092,277,543.9047,1699.2463,83100,34591.76,4496.928800000001,18.479278568964666
350 ATKINSON DR SE,Single Family Residential,33.654351,-84.3790159,56,109.959076,1404.6404,16800,6993.28,909.1264,18.479278568964666
409 ATKINSON DR SE,Single Family Residential,33.653168,-84.377268,12,23.562658,1392.891,3600,1498.56,194.8128,18.479278568964666
319 ATKINSON DR SE,Single Family Residential,33.653894,-84.380068,18,35.343987,1019.37067,5400,2247.84,292.2192,18.479278568964666
344 ATKINSON DR SE,Single Family Residential,33.654356,-84.379245,56,109.959076,1404.6404,16800,6993.28,909.1264,18.479278568964666
368 ATKINSON DR SE,Single Family Residential,33.654233,-84.378399,56,109.959076,1404.6404,16800,6993.28,909.1264,18.479278568964666
392 ATKINSON DR SE,Single Family Residential,33.653863,-84.377696,4032,7917.053,1583.7075,1209600,503516.16,65457.1008,18.479278568964666
0 SIMON ST SE,Single Family Residential,47.404887,-120.2884663,302,592.9936,1553.9832,90600,37713.76,4902.7888,18.479278568964666
399 MCCOY RD SE,Single Family Residential,28.4517239,-81.3171092,277,543.9047,1699.2463,83100,34591.76,4496.928800000001,18.479278568964666
356 ATKINSON DR SE,Single Family Residential,33.654339,-84.37880899999999,56,109.959076,1404.6404,16800,6993.28,909.1264,18.479278568964666
380 ATKINSON DR SE,Single Family Residential,33.654086,-84.378032,56,109.959076,1404.6404,16800,6993.28,909.1264,18.479278568964666
0 SIMON ST SE,Single Family Residential,47.404887,-120.2884663,302,592.9936,1553.9832,90600,37713.76,4902.7888,18.479278568964666
338 ATKINSON DR SE,Single Family Residential,33.654361,-84.37944399999999,18,35.343987,1019.37067,5400,2247.84,292.2192,18.479278568964666
332 ATKINSON DR SE,Single Family Residential,33.654365,-84.379639,18,35.343987,1019.37067,5400,2247.84,292.2192,18.479278568964666
381 SIMON ST SE,Single Family Residential,33.654584,-84.378002,56,109.959076,1404.6404,16800,6993.28,909.1264,18.479278568964666
442 ATKINSON DR SE,Single Family Residential,33.654283,-84.37724399999999,4032,7917.053,1583.7075,1209600,503516.16,65457.1008,18.479278568964666
398 ATKINSON DR SE,Single Family Residential,33.653718,-84.377553,12,23.562658,1392.891,3600,1498.56,194.8128,18.479278568964666
0 SIMON ST SE,Single Family Residential,47.404887,-120.2884663,302,592.9936,1553.9832,90600,37713.76,4902.7888,18.479278568964666
424 ATKINSON DR SE,Single Family Residential,33.653781,-84.377205,12,23.562658,1392.891,3600,1498.56,194.8128,18.479278568964666
311 ATKINSON DR SE,Single Family Residential,33.653934,-84.380335,18,35.343987,1019.37067,5400,2247.84,292.2192,18.479278568964666
3646 RUBY H HARPER BLVD SE,Single Family Residential,33.654561,-84.3802879,40,78.54219,1205.0201,12000,4995.2,649.376,18.47927856896467
357 SIMON ST SE,Single Family Residential,33.654693,-84.37877999999999,56,109.959076,1404.6404,16800,6993.28,909.1264,18.479278568964666
415 ATKINSON DR SE,Single Family Residential,33.653147,-84.37695099999999,12,23.562658,1392.891,3600,1498.56,194.8128,18.479278568964666
331 ATKINSON DR SE,Single Family Residential,33.653885,-84.379679,18,35.343987,1019.37067,5400,2247.84,292.2192,18.479278568964666
345 SIMON ST SE,Single Family Residential,33.654711,-84.379182,56,109.959076,1404.6404,16800,6993.28,909.1264,18.479278568964666
320 ATKINSON DR SE,Single Family Residential,33.654371,-84.38003499999999,18,35.343987,1019.37067,5400,2247.84,292.2192,18.479278568964666
362 ATKINSON DR SE,Single Family Residential,33.654293,-84.37859999999999,56,109.959076,1404.6404,16800,6993.28,909.1264,18.479278568964666
3460 JONESBORO RD SE,Single Family Residential,33.660968,-84.3684828,12,23.562658,1616.2697,3600,1498.56,194.8128,18.479278568964666
326 SIMON ST SE,Single Family Residential,33.655193,-84.37978199999999,9,17.671993,1203.5282,2700,1123.92,146.1096,18.479278568964666
339 SIMON ST SE,Single Family Residential,33.654713,-84.3793759,9,17.671993,1203.5282,2700,1123.92,146.1096,18.479278568964666
460 ATKINSON DR SE,Single Family Residential,33.654712,-84.377138,4032,7917.053,1583.7075,1209600,503516.16,65457.1008,18.479278568964666
333 SIMON ST SE,Single Family Residential,33.65472,-84.37956799999999,9,17.671993,1203.5282,2700,1123.92,146.1096,18.479278568964666
363 SIMON ST SE,Single Family Residential,33.654661,-84.37858700000001,56,109.959076,1404.6404,16800,6993.28,909.1264,18.479278568964666
386 ATKINSON DR SE,Single Family Residential,33.654029,-84.377839,4032,7917.053,1583.7075,1209600,503516.16,65457.1008,18.479278568964666
454 ATKINSON DR SE,Single Family Residential,33.654494,-84.37722,4032,7917.053,1583.7075,1209600,503516.16,65457.1008,18.479278568964666
417 MCCOY RD SE,Single Family Residential,28.4517239,-81.3171092,277,543.9047,1699.2463,83100,34591.76,4496.928800000001,18.479278568964666
369 SIMON ST SE,Single Family Residential,33.654639,-84.37839699999999,56,109.959076,1404.6404,16800,6993.28,909.1264,18.479278568964666
416 ATKINSON DR SE,Single Family Residential,33.6536,-84.37733000000001,12,23.562658,1392.891,3600,1498.56,194.8128,18.479278568964666
337 ATKINSON DR SE,Single Family Residential,33.653881,-84.379485,18,35.343987,1019.37067,5400,2247.84,292.2192,18.479278568964666
355 ATKINSON DR SE,Single Family Residential,33.653833,-84.378896,56,109.959076,1404.6404,16800,6993.28,909.1264,18.479278568964666
326 ATKINSON DR SE,Single Family Residential,33.65437,-84.37983299999999,18,35.343987,1019.37067,5400,2247.84,292.2192,18.479278568964666
351 SIMON ST SE,Single Family Residential,33.654706,-84.3789819,56,109.959076,1404.6404,16800,6993.28,909.1264,18.479278568964666
327 SIMON ST SE,Single Family Residential,33.654724,-84.379764,40,78.54219,1205.0201,12000,4995.2,649.376,18.47927856896467
3654 RUBY H HARPER BLVD SE,Single Family Residential,33.654338,-84.38031900000001,18,35.343987,1019.37067,5400,2247.84,292.2192,18.479278568964666
374 ATKINSON DR SE,Single Family Residential,33.654162,-84.378205,56,109.959076,1404.6404,16800,6993.28,909.1264,18.479278568964666
0 ATKINSON DR SE,Single Family Residential,33.6543327,-84.3769038,4032,7917.053,1583.7075,1209600,503516.16,65457.1008,18.479278568964666
434 ATKINSON DR SE,Single Family Residential,33.654069,-84.37724800000001,4032,7917.053,1583.7075,1209600,503516.16,65457.1008,18.479278568964666
361 ATKINSON DR SE,Single Family Residential,33.653836,-84.378726,56,109.959076,1404.6404,16800,6993.28,909.1264,18.479278568964666
3620 RUBY H HARPER BLVD SE,Single Family Residential,33.655216,-84.38019000000001,9,17.671993,1203.5282,2700,1123.92,146.1096,18.479278568964666
349 ATKINSON DR SE,Single Family Residential,33.653859,-84.37909499999999,56,109.959076,1404.6404,16800,6993.28,909.1264,18.479278568964666
0 SPRINGSIDE DR SE,Single Family Residential,33.6777428,-84.3912914,218,428.05496,1610.3188,65400,27223.84,3539.0992,18.479278568964666
0 SPRINGSIDE DR SE # R,Single Family Residential,33.6777428,-84.3912914,218,428.05496,1610.3188,65400,27223.84,3539.0992,18.479278568964666
0 BROMACK DR SE,Single Family Residential,33.6890186,-84.39020140000001,62,121.7404,1667.2975,18600,7742.56,1006.5328000000001,18.479278568964666
0 CLEVELAND AVE SE,Single Family Residential,33.681375,-84.388353,51,100.1413,1524.2285,15300,6368.88,827.9544000000001,18.479278568964666
0 RHINEHILL RD SE # REAR,Single Family Residential,33.694314,-84.3790266,14,27.489769,1186.2312,4200,1748.32,227.2816,18.479278568964666
0 BROWNS MILL RD SE,Single Family Residential,33.6774592,-84.3841758,43,84.43286,1490.305,12900,5369.84,698.0792,18.479278568964666
0 BROWNS MILL RD SE,Single Family Residential,33.6774592,-84.3841758,43,84.43286,1490.305,12900,5369.84,698.0792,18.479278568964666
0 OAK KNOLL CIR SE,Single Family Residential,33.7095502,-84.3778456,6,11.781329,910.3308,1800,749.28,97.4064,18.479278568964666
0 ERIC ST SE,Single Family Residential,-31.989417,115.7530824,149,292.56967,1895.5161,44700,18607.12,2418.9256,18.479278568964666
400 DALTON ST SE,Single Family Residential,33.719166,-84.374308,48,94.25063,1418.8282,14400,5994.24,779.2512,18.479278568964666
0 OAK KNOLL CIR SE,Single Family Residential,33.7095502,-84.3778456,6,11.781329,910.3308,1800,749.28,97.4064,18.479278568964666
0 LIVERMORE ST SE,Single Family Residential,33.7079026,-84.38000249999999,199,390.7474,1587.8864,59700,24851.12,3230.6456,18.47927856896467
0 ERIC ST SE,Single Family Residential,-31.989417,115.7530824,149,292.56967,1895.5161,44700,18607.12,2418.9256,18.479278568964666
0 ERIC ST SE,Single Family Residential,-31.989417,115.7530824,149,292.56967,1895.5161,44700,18607.12,2418.9256,18.479278568964666
0 ATLANTA AVE SE,Single Family Residential,33.7304017,-84.3879638,291,571.3945,1557.8098,87300,36340.08,4724.2104,18.479278568964666
0 ROBINSON AVE SE,Single Family Residential,33.7283787,-84.3692465,61,119.77685,1544.085,18300,7617.68,990.2984,18.479278568964666
0 ATLANTA AVE SE,Single Family Residential,33.7304017,-84.3879638,291,571.3945,1557.8098,87300,36340.08,4724.2104,18.479278568964666
0 ATLANTA AVE SE,Single Family Residential,33.7304017,-84.3879638,291,571.3945,1557.8098,87300,36340.08,4724.2104,18.479278568964666
329 ORMOND ST SE,Single Family Residential,33.7313001,-84.3773397,11,21.599104,1094.6265,3300,1373.68,178.57840000000002,18.479278568964666
800 CHEROKEE AVE SE,Single Family Residential,33.7341425,-84.3722666,401,787.3855,1580.0056,120300,50076.88,6509.9944,18.47927856896467
0 ORMOND ST SE,Single Family Residential,33.7317501,-84.387945,79,155.12083,1618.3336,23700,9865.52,1282.5176000000001,18.479278568964666
0 ORMOND ST SE,Single Family Residential,33.7317501,-84.387945,79,155.12083,1618.3336,23700,9865.52,1282.5176000000001,18.479278568964666
0 KELLY ST SE,Single Family Residential,33.7424216,-84.3804951,26,51.052425,1452.2485,7800,3246.88,422.0944,18.479278568964666
0 CONNALLY ST SE,Single Family Residential,33.7372397,-84.3815335,105,206.17326,1501.0347,31500,13112.4,1704.612,18.479278568964666
0 CONNALLY ST SE,Single Family Residential,33.7372397,-84.3815335,105,206.17326,1501.0347,31500,13112.4,1704.612,18.479278568964666
0 GLENWOOD AVE SE,Single Family Residential,33.740045,-84.3371535,25,49.08887,1609.0521,7500,3122,405.86,18.479278568964666
0 GLENWOOD AVE SE,Single Family Residential,33.740045,-84.3371535,25,49.08887,1609.0521,7500,3122,405.86,18.479278568964666
0 KELLY ST SE,Single Family Residential,33.7424216,-84.3804951,26,51.052425,1452.2485,7800,3246.88,422.0944,18.479278568964666
0 GLENWOOD AVE SE,Single Family Residential,33.740045,-84.3371535,25,49.08887,1609.0521,7500,3122,405.86,18.479278568964666
0 FULTON ST SE,Single Family Residential,33.7418996,-84.3867144,3212,6306.938,1557.9846,963600,401114.56,52144.8928,18.479278568964666
0 GLENWOOD AVE SE # REAR,Single Family Residential,33.740045,-84.3371535,25,49.08887,1609.0521,7500,3122,405.86,18.479278568964666
0 GLENWOOD AVE SE REAR,Single Family Residential,33.740045,-84.3371535,25,49.08887,1609.0521,7500,3122,405.86,18.479278568964666
0 GLENWOOD AVE SE,Single Family Residential,33.740045,-84.3371535,25,49.08887,1609.0521,7500,3122,405.86,18.479278568964666
0 FULTON ST SE,Single Family Residential,33.7418996,-84.3867144,3212,6306.938,1557.9846,963600,401114.56,52144.8928,18.479278568964666
0 KELLY ST SE,Single Family Residential,33.7424216,-84.3804951,26,51.052425,1452.2485,7800,3246.88,422.0944,18.479278568964666
0 KELLY ST SE,Single Family Residential,33.7424216,-84.3804951,26,51.052425,1452.2485,7800,3246.88,422.0944,18.479278568964666
0 KELLY ST SE,Single Family Residential,33.7424216,-84.3804951,26,51.052425,1452.2485,7800,3246.88,422.0944,18.479278568964666
0 GLENWOOD AVE SE,Single Family Residential,33.740045,-84.3371535,25,49.08887,1609.0521,7500,3122,405.86,18.479278568964666
0 FULTON ST SE,Single Family Residential,33.7418996,-84.3867144,3212,6306.938,1557.9846,963600,401114.56,52144.8928,18.479278568964666
67 RICHARDSON ST SE,Single Family Residential,27.9866037,-80.67096389999999,51,100.1413,1788.9595,15300,6368.88,827.9544000000001,18.479278568964666
0 FULTON ST SE,Single Family Residential,33.7418996,-84.3867144,3212,6306.938,1557.9846,963600,401114.56,52144.8928,18.479278568964666
0 GLENWOOD AVE SE,Single Family Residential,33.740045,-84.3371535,25,49.08887,1609.0521,7500,3122,405.86,18.479278568964666
0 FULTON ST SE,Single Family Residential,33.7418996,-84.3867144,3212,6306.938,1557.9846,963600,401114.56,52144.8928,18.479278568964666
0 GLENWOOD AVE SE,Single Family Residential,33.740045,-84.3371535,25,49.08887,1609.0521,7500,3122,405.86,18.479278568964666
0 GLENWOOD AVE SE,Single Family Residential,33.740045,-84.3371535,25,49.08887,1609.0521,7500,3122,405.86,18.479278568964666
0 GLENWOOD AVE SE,Single Family Residential,33.740045,-84.3371535,25,49.08887,1609.0521,7500,3122,405.86,18.479278568964666
0 GLENWOOD AVE SE,Single Family Residential,33.740045,-84.3371535,25,49.08887,1609.0521,7500,3122,405.86,18.479278568964666
0 FRASER ST SE,Single Family Residential,33.7381592,-84.3863365,27,53.01598,1660.6381,8100,3371.76,438.32880000000006,18.479278568964666
542 FRASER ST SE,Single Family Residential,33.739844,-84.38606999999999,34,66.760864,1681.4191,10200,4245.92,551.9696,18.479278568964666
0 CRUMLEY ST SE,Single Family Residential,33.7394594,-84.3863111,27,53.01598,1637.27,8100,3371.76,438.32880000000006,18.479278568964666
0 CRUMLEY ST SE,Single Family Residential,33.7394594,-84.3863111,27,53.01598,1637.27,8100,3371.76,438.32880000000006,18.479278568964666
0 FRASER ST SE,Multi-Family Residential,33.7381592,-84.3863365,27,53.01598,1660.6381,8100,3371.76,438.32880000000006,18.479278568964666
0 FULTON ST SE,Single Family Residential,33.7418996,-84.3867144,3212,6306.938,1557.9846,963600,401114.56,52144.8928,18.479278568964666
548 FRASER ST SE,Single Family Residential,33.739709,-84.38606399999999,27,53.01598,1637.27,8100,3371.76,438.32880000000006,18.479278568964666
0 CONNALLY ST SE,Single Family Residential,33.7372397,-84.3815335,105,206.17326,1501.0347,31500,13112.4,1704.612,18.479278568964666
0 GRANT TER SE,Single Family Residential,33.7311883,-84.3799486,31,60.8702,1305.8756,9300,3871.28,503.26640000000003,18.479278568964666
0 GEORGIA AVE SE,Single Family Residential,33.7368504,-84.3878812,13,25.526213,1490.5769,3900,1623.44,211.0472,18.479278568964666
222 GEORGIA AVE SE,Single Family Residential,33.73703,-84.380416,52,102.10485,1461.6354,15600,6493.76,844.1888,18.479278568964666
0 GRANT TER SE,Single Family Residential,33.7311883,-84.3799486,31,60.8702,1305.8756,9300,3871.28,503.26640000000003,18.479278568964666
0 GRANT TER SE,Single Family Residential,33.7311883,-84.3799486,31,60.8702,1305.8756,9300,3871.28,503.26640000000003,18.479278568964666
0 GRANT TER SE,Single Family Residential,33.7311883,-84.3799486,31,60.8702,1305.8756,9300,3871.28,503.26640000000003,18.479278568964666
135 GEORGIA AVE SE,Single Family Residential,33.736332,-84.38324290000001,12,23.562658,1581.9554,3600,1498.56,194.8128,18.479278568964666
0 GEORGIA AVE SE,Single Family Residential,33.7368504,-84.3878812,13,25.526213,1490.5769,3900,1623.44,211.0472,18.479278568964666
0 GEORGIA AVE SE,Single Family Residential,33.7368504,-84.3878812,13,25.526213,1490.5769,3900,1623.44,211.0472,18.479278568964666
0 GRANT TER SE,Single Family Residential,33.7311883,-84.3799486,31,60.8702,1305.8756,9300,3871.28,503.26640000000003,18.479278568964666
0 GEORGIA AVE SE,Single Family Residential,33.7368504,-84.3878812,13,25.526213,1490.5769,3900,1623.44,211.0472,18.479278568964666
0 PRIMROSE ST SE,Single Family Residential,37.2549752,-79.9296975,48,94.25063,1455.7064,14400,5994.24,779.2512,18.479278568964666
0 GEORGIA AVE SE,Single Family Residential,33.7368504,-84.3878812,13,25.526213,1490.5769,3900,1623.44,211.0472,18.479278568964666
0 GEORGIA AVE SE,Single Family Residential,33.7368504,-84.3878812,13,25.526213,1490.5769,3900,1623.44,211.0472,18.479278568964666
0 GEORGIA AVE SE,Single Family Residential,33.7368504,-84.3878812,13,25.526213,1490.5769,3900,1623.44,211.0472,18.479278568964666
0 AMI ST SE,Single Family Residential,33.7350453,-84.382351,8,15.708439,1584.2122,2400,999.04,129.8752,18.479278568964666
266 GEORGIA AVE SE,Single Family Residential,33.737319,-84.3791959,617,1211.5133,1592.4946,185100,77050.96,10016.624800000001,18.479278568964666
0 AMI ST SE,Single Family Residential,33.7350453,-84.382351,8,15.708439,1584.2122,2400,999.04,129.8752,18.479278568964666
0 KENNETH ST SE,Single Family Residential,41.2642014,-72.8787529,55,107.995514,1524.8492,16500,6868.4,892.8919999999999,18.47927856896467
0 BASS ST SE,Single Family Residential,33.7356115,-84.3879079,86,168.86572,1473.848,25800,10739.68,1396.1584,18.479278568964666
0 BASS ST SE,Single Family Residential,33.7356115,-84.3879079,86,168.86572,1473.848,25800,10739.68,1396.1584,18.479278568964666
0 KENNETH ST SE,Single Family Residential,41.2642014,-72.8787529,55,107.995514,1524.8492,16500,6868.4,892.8919999999999,18.47927856896467
0 KENNETH ST SE,Single Family Residential,41.2642014,-72.8787529,55,107.995514,1524.8492,16500,6868.4,892.8919999999999,18.47927856896467
0 AMI ST SE,Single Family Residential,33.7350453,-84.382351,8,15.708439,1584.2122,2400,999.04,129.8752,18.479278568964666
0 KENNETH ST SE,Single Family Residential,41.2642014,-72.8787529,55,107.995514,1524.8492,16500,6868.4,892.8919999999999,18.47927856896467
0 GRANT WAY SE,Multi-Family Residential,51.4867088,-0.3285077,6,11.781329,1023.8929,1800,749.28,97.4064,18.479278568964666
4610 TUCSON TRL SW,Single Family Residential,33.6896678,-84.5389282,51,100.1413,1094.3433,15300,6368.88,827.9544000000001,18.479278568964666
0 SWALLOW CIR SE,Single Family Residential,33.6950486,-84.3861521,36,70.68797,1428.5289,10800,4495.68,584.4384,18.479278568964666
0 CHICAMAUGA AVE SW,Single Family Residential,33.7537307,-84.4320604,9,17.671993,1253.604,2700,1123.92,146.1096,18.479278568964666
0 RICKENBACKER WAY NE,Single Family Residential,33.8709946,-84.3774793,46,90.323524,1177.923,13800,5744.48,746.7823999999999,18.47927856896467
1194 CHURCH ST NW,Single Family Residential,38.9102342,-77.03241799999999,235,461.4354,1499.246,70500,29346.8,3815.084,18.47927856896467
0 JOSEPH E LOWERY BLVD,Single Family Residential,33.7548792,-84.417735,22,43.198208,1611.264,6600,2747.36,357.15680000000003,18.479278568964666
0 STONE RD # SW,Single Family Residential,33.6769088,-84.5047699,59,115.84974,1331.684,17700,7367.92,957.8296,18.479278568964666
1387 WEST AVE NW,Single Family Residential,33.7659143,-84.433253,10,19.635548,1216.1107,3000,1248.8,162.344,18.47927856896467
937 IRA ST SW,Single Family Residential,33.72941770000001,-84.4001735,35,68.72442,1641.585,10500,4370.8,568.2040000000001,18.479278568964666
0 LENA ST NW,Single Family Residential,33.7566649,-84.4222872,55,107.995514,1523.7778,16500,6868.4,892.8919999999999,18.47927856896467
0 SELLS AVE SW,Single Family Residential,33.7453425,-84.4268203,27,53.01598,1262.8319,8100,3371.76,438.32880000000006,18.479278568964666
0 ORMOND ST SE,Single Family Residential,33.7317501,-84.387945,79,155.12083,1618.3336,23700,9865.52,1282.5176000000001,18.479278568964666
399 MCCOY RD SE,Single Family Residential,28.4517239,-81.3171092,277,543.9047,1699.2463,83100,34591.76,4496.928800000001,18.479278568964666
0 CAPITOL AVE SW,Single Family Residential,33.7092137,-84.3890138,987,1938.0287,1624.3822,296100,123256.56,16023.3528,18.479278568964666
0 OAKLAND DR SW,Single Family Residential,33.7236826,-84.4273897,42,82.46931,1586.0332,12600,5244.96,681.8448000000001,18.479278568964666
2040 MAIN ST NW,Multi-Family Residential,33.8114656,-84.47225460000001,86,168.86572,1480.5282,25800,10739.68,1396.1584,18.479278568964666
"300 EAST LAKE BOULEVARD ATLANTA, GA 30317",Single Family Residential,33.7610935,-84.3110847,90,176.71994,1651.0304,27000,11239.2,1461.0960000000002,18.479278568964666
"1807 DIXIE STREET ATLANTA, GA 30317",Single Family Residential,33.7496826,-84.3287313,47,92.28708,1238.4738,14100,5869.36,763.0168,18.479278568964666
"1819 DIXIE STREET ATLANTA, GA 30317",Single Family Residential,33.748829,-84.328244,30,58.906647,1487.725,9000,3746.4,487.03200000000004,18.479278568964666
0 GRANT TER SE,Single Family Residential,33.7311883,-84.3799486,31,60.8702,1305.8756,9300,3871.28,503.26640000000003,18.479278568964666
1586 SOUTH GORDON ST SW,Single Family Residential,33.7394708,-84.43980760000001,18,35.343987,1098.8972,5400,2247.84,292.2192,18.479278568964666
0 DECKNER AVE SW,Single Family Residential,33.7143273,-84.4118979,41,80.50575,1646.2435,12300,5120.08,665.6104,18.479278568964666
1345 PIEDMONT AVE NE,Single Family Residential,33.7899524,-84.37261819999999,163,320.05945,1464.5111,48900,20355.44,2646.2072,18.47927856896467
430 CLIMAX ST SE,Multi-Family Residential,33.721198,-84.37400699999999,1122,2203.1086,1585.1443,336600,140115.36,18214.996799999997,18.47927856896467
409 ATKINSON DR SE,Single Family Residential,33.653168,-84.377268,12,23.562658,1392.891,3600,1498.56,194.8128,18.479278568964666
427 BOULEVARD NE,Single Family Residential,33.766196,-84.371653,131,257.22568,1677.8907,39300,16359.28,2126.7064,18.479278568964666
0 ROSE CIR SW,Multi-Family Residential,33.8058638,-84.5990617,3,5.8906646,1220.8618,900,374.64,48.7032,18.479278568964666
0 PEYTON RD SW # REAR,Single Family Residential,33.7520602,-84.4681275,91,178.68349,1594.8324,27300,11364.08,1477.3304,18.479278568964666
0 STOVALL BLV NE,Single Family Residential,33.8617714,-84.3581802,45,88.35997,1173.3691,13500,5619.6,730.5480000000001,18.479278568964666
0 OAK KNOLL CIR SE,Single Family Residential,33.7095502,-84.3778456,6,11.781329,910.3308,1800,749.28,97.4064,18.479278568964666
406 LAWTON ST SW,Single Family Residential,33.744163,-84.42274599999999,79,155.12083,1606.9374,23700,9865.52,1282.5176000000001,18.479278568964666
0 HARLAN RD SW,Single Family Residential,33.75443560000001,-84.4811582,217,426.0914,1462.6715,65100,27098.96,3522.8648,18.47927856896467
0 GAULT ST SE,Single Family Residential,33.716327,-84.3723388,77,151.19373,1487.2523,23100,9615.76,1250.0488,18.479278568964666
2023 WELLS DR SW,Single Family Residential,33.7004411,-84.4678301,35,68.72442,910.98596,10500,4370.8,568.2040000000001,18.479278568964666
0 MOUNT PARAN RD NW,Single Family Residential,33.8943924,-84.3872087,145,284.71545,1547.0208,43500,18107.6,2353.988,18.47927856896467
523 LUCKIE ST NW,Single Family Residential,33.7690805,-84.3957069,74,145.30305,1597.6355,22200,9241.12,1201.3456,18.479278568964666
0 RALPH D ABERNATHY BLVD SW,Single Family Residential,33.7373249,-84.3899933,60,117.81329,1551.9735,18000,7492.8,974.0640000000001,18.479278568964666
0 KENNETH ST SE,Single Family Residential,41.2642014,-72.8787529,55,107.995514,1524.8492,16500,6868.4,892.8919999999999,18.47927856896467
374 ATKINSON DR SE,Single Family Residential,33.654162,-84.378205,56,109.959076,1404.6404,16800,6993.28,909.1264,18.479278568964666
0 RIDGEWOOD RD NW,Single Family Residential,33.8389384,-84.4470101,83,162.97505,1206.3438,24900,10365.04,1347.4552,18.479278568964666
0 GRANGE DR SE,Single Family Residential,33.6994736,-84.3606541,16,31.416878,1580.6295,4800,1998.08,259.7504,18.479278568964666
0 FAIRBURN RD SW,Multi-Family Residential,33.7587783,-84.505142,87,170.82927,1542.5106,26100,10864.56,1412.3928,18.479278568964666
0 SCHELL RD SE,Single Family Residential,33.6954817,-84.3809119,24,47.125317,1280.947,7200,2997.12,389.6256,18.479278568964666
1371 KIMBERLY RD SW,Single Family Residential,33.7184618,-84.5215733,225,441.79984,1576.0638,67500,28098,3652.7400000000002,18.479278568964666
0 NATHAM DR SE,Single Family Residential,33.6893545,-84.3579239,34,66.760864,1626.9901,10200,4245.92,551.9696,18.479278568964666
0 SCHELL RD SE,Single Family Residential,33.6954817,-84.3809119,24,47.125317,1280.947,7200,2997.12,389.6256,18.479278568964666
0 GUN CLUB RD NW,Single Family Residential,33.7895507,-84.4603758,5,9.817774,1315.5392,1500,624.4,81.172,18.47927856896467
0 MARKTWO PL NW,Single Family Residential,33.7698188,-84.4469755,9,17.671993,750.74493,2700,1123.92,146.1096,18.479278568964666
0 HENDON RD SE,Single Family Residential,33.656071,-84.3548511,50,98.17774,1046.8611,15000,6244,811.72,18.479278568964666
0 COMMODORE DR NW,Single Family Residential,33.7741036,-84.4590269,61,119.77685,1447.8336,18300,7617.68,990.2984,18.479278568964666
0 NEW TOWN CIR SE,Single Family Residential,33.7087716,-84.3620262,17,33.380432,1622.104,5100,2122.96,275.9848,18.479278568964666
0 SLOAN CIR SE,Single Family Residential,33.7183923,-84.3578855,13,25.526213,865.478,3900,1623.44,211.0472,18.479278568964666
415 ATKINSON DR SE,Single Family Residential,33.653147,-84.37695099999999,12,23.562658,1392.891,3600,1498.56,194.8128,18.479278568964666
0 GEORGIA AVE SE,Single Family Residential,33.7368504,-84.3878812,13,25.526213,1490.5769,3900,1623.44,211.0472,18.479278568964666
0 BOLTON RD REAR,Single Family Residential,53.7336231,-2.4903893,382,750.07794,874.6751,114600,47704.16,6201.540800000001,18.479278568964666
0 MACK DR NW,Single Family Residential,33.7904618,-84.4601751,40,78.54219,1440.9268,12000,4995.2,649.376,18.47927856896467
0 COOPER ST SW,Single Family Residential,33.7395298,-84.3970089,63,123.70396,1647.1492,18900,7867.44,1022.7672,18.479278568964666
0 HABERSHAM RD NW,Single Family Residential,33.8337259,-84.3950375,38,74.61508,1315.1056,11400,4745.44,616.9072,18.479278568964666
3708 WILSON RD SE,Single Family Residential,33.653189,-84.38466299999999,2333,4580.9736,1590.1752,699900,291345.04,37874.8552,18.47927856896467
"1592 WOODBINE AVENUE ATLANTA, GA 30317",Single Family Residential,33.752139,-84.335359,59,115.84974,1668.3177,17700,7367.92,957.8296,18.479278568964666
0 KINSEY CT NE,Single Family Residential,33.8155376,-84.3803703,25,49.08887,981.4637,7500,3122,405.86,18.479278568964666
394 CLIMAX ST SE,Multi-Family Residential,33.72121,-84.3752389,17,33.380432,1414.5527,5100,2122.96,275.9848,18.479278568964666
"0 DEARBORN STREET ATLANTA, GA 30317",Single Family Residential,33.7510017,-84.3272697,33,64.79731,1307.4023,9900,4121.04,535.7352,18.47927856896467
0 PINE ST NW,Single Family Residential,33.7673456,-84.3874613,1242,2438.735,1593.2916,372600,155100.96,20163.1248,18.479278568964666
0 ORIOLE DR SW,Single Family Residential,33.727025,-84.4735062,50,98.17774,1437.7306,15000,6244,811.72,18.479278568964666
0 CONNALLY ST SE,Single Family Residential,33.7372397,-84.3815335,105,206.17326,1501.0347,31500,13112.4,1704.612,18.479278568964666
0 RECTOR DR SW,Single Family Residential,33.7322343,-84.4555789,34,66.760864,1085.0881,10200,4245.92,551.9696,18.479278568964666
327 SIMON ST SE,Single Family Residential,33.654724,-84.379764,40,78.54219,1205.0201,12000,4995.2,649.376,18.47927856896467
0 NORTH STRATFORD RD,Single Family Residential,42.0819159,-87.9620649,57,111.92263,1311.5314,17100,7118.16,925.3608,18.479278568964666
554 WEST ANTHONY ST NW,Single Family Residential,32.6863528,-97.3299102,31,60.8702,1688.036,9300,3871.28,503.26640000000003,18.479278568964666
0 OAK KNOLL CIR SE,Single Family Residential,33.7095502,-84.3778456,6,11.781329,910.3308,1800,749.28,97.4064,18.479278568964666
1841 WELLS DR SW,Single Family Residential,33.7046999,-84.4692426,49,96.21419,1188.959,14700,6119.12,795.4856,18.47927856896467
600 MC WILLIAMS RD SE,Single Family Residential,33.6895295,-84.3665274,338,663.6815,1600.9166,101400,42209.44,5487.2272,18.479278568964666
0 NORTH AVE NW # REAR,Single Family Residential,33.7712965,-84.3874257,5,9.817774,1308.9366,1500,624.4,81.172,18.47927856896467
1565 M L KING JR DR SW,Single Family Residential,42.3189667,-87.85098160000001,28,54.979538,1320,8400,3496.64,454.5632,18.479278568964666
885 NORTH EUGENIA PL NW,Single Family Residential,33.7792497,-84.452736,48,94.25063,1316.1003,14400,5994.24,779.2512,18.479278568964666
993 WESTVIEW DR SW,Multi-Family Residential,33.747568,-84.420108,379,744.1873,1679.4061,113700,47329.52,6152.8376,18.479278568964666
0 BURBANK DR NW,Single Family Residential,33.7547886,-84.42793209999999,45,88.35997,1481.712,13500,5619.6,730.5480000000001,18.479278568964666
0 OSBORNE ST SW,Single Family Residential,33.70441,-84.4252527,50,98.17774,1547.107,15000,6244,811.72,18.479278568964666
1529 PIEDMONT AVE NE,Single Family Residential,33.7955773,-84.36884189999999,580,1138.8618,1615.8018,174000,72430.4,9415.952,18.47927856896467
3641 RUBY H HARPER BLVD SE,Single Family Residential,33.65488,-84.381074,40,78.54219,1205.0201,12000,4995.2,649.376,18.47927856896467
0 ERIC ST SE,Single Family Residential,-31.989417,115.7530824,149,292.56967,1895.5161,44700,18607.12,2418.9256,18.479278568964666
0 MARTIN CT SE,Single Family Residential,33.9436993,-84.5191769,24,47.125317,1470.455,7200,2997.12,389.6256,18.479278568964666
0 LESTER AVE SE,Multi-Family Residential,42.1132007,-75.9500819,96,188.50127,1388.3953,28800,11988.48,1558.5024,18.479278568964666
0 PINE ST NE,Single Family Residential,33.7673456,-84.3874596,1242,2438.735,1593.2916,372600,155100.96,20163.1248,18.479278568964666
0 CAMPBELLTON RD SW,Multi-Family Residential,33.695262,-84.524129,61,119.77685,1367.3949,18300,7617.68,990.2984,18.479278568964666
536 BOULEVARD NE,Single Family Residential,33.7690461,-84.37223019999999,120,235.62659,1664.5055,36000,14985.6,1948.1280000000002,18.479278568964666
0 LANG DR SW,Single Family Residential,33.6946964,-84.391115,19,37.30754,1146.7806,5700,2372.72,308.4536,18.479278568964666
147 ORMOND ST SE,Single Family Residential,33.7314199,-84.3829554,75,147.26662,1556.8274,22500,9366,1217.5800000000002,18.479278568964666
959 HILL ST SE,Single Family Residential,33.7282711,-84.37874090000001,22,43.198208,1308.028,6600,2747.36,357.15680000000003,18.479278568964666
0 GLENWOOD AVE SE,Single Family Residential,33.740045,-84.3371535,25,49.08887,1609.0521,7500,3122,405.86,18.479278568964666
0 HARPER ST NW,Single Family Residential,51.0948315,-114.0754495,60,117.81329,1226.9703,18000,7492.8,974.0640000000001,18.479278568964666
0 WELLS DR SW,Single Family Residential,33.7032381,-84.4688182,222,435.90918,1232.9929,66600,27723.36,3604.0368000000003,18.479278568964666
35 GAMMON ST SE,Single Family Residential,33.717293,-84.3874979,43,84.43286,1430.0856,12900,5369.84,698.0792,18.479278568964666
2000 PERRY BLVD NW,Single Family Residential,33.798649,-84.45482899999999,32,62.833755,1485.8947,9600,3996.16,519.5008,18.479278568964666
0 GROVE PARK PL NW # REAR,Single Family Residential,33.7767787,-84.43730649999999,39,76.578636,1517.1763,11700,4870.32,633.1416,18.479278568964666
0 MANFORD RD SW,Single Family Residential,33.7193367,-84.4011997,144,282.7519,1623.938,43200,17982.72,2337.7536,18.479278568964666
120 ANDERSON AVE NW,Single Family Residential,33.757276,-84.45480409999999,410,805.0575,1512.6068,123000,51200.8,6656.104,18.479278568964666
350 ATKINSON DR SE,Single Family Residential,33.654351,-84.3790159,56,109.959076,1404.6404,16800,6993.28,909.1264,18.479278568964666
0 HILLIARD ST SE,Single Family Residential,33.7543564,-84.37661039999999,62,121.7404,1606.7845,18600,7742.56,1006.5328000000001,18.479278568964666
1690 DELOWE DR SW,Single Family Residential,33.7093379,-84.45889849999999,19,37.30754,1044.9106,5700,2372.72,308.4536,18.479278568964666
0 REBECCA DR SW,Single Family Residential,33.9182224,-84.55279809999999,68,133.52173,1411.9086,20400,8491.84,1103.9392,18.479278568964666
320 PINETREE DR NE,Single Family Residential,33.829158,-84.377265,100,196.35548,1032.8019,30000,12488,1623.44,18.479278568964666
257 AMAL DR,Single Family Residential,33.70701930000001,-84.3961905,47,92.28708,1616.9121,14100,5869.36,763.0168,18.479278568964666
0 GRANT TER SE,Single Family Residential,33.7311883,-84.3799486,31,60.8702,1305.8756,9300,3871.28,503.26640000000003,18.479278568964666
0 LENOX RD NE,Single Family Residential,33.8274389,-84.3546728,48,94.25063,1579.2177,14400,5994.24,779.2512,18.479278568964666
387 DALTON ST SE,Multi-Family Residential,33.719774,-84.375517,2,3.9271097,1246.6188,600,249.76,32.4688,18.479278568964666
0 MOORE ST NW # REAR,Single Family Residential,33.8047529,-84.4671382,2,3.9271097,976.5845,600,249.76,32.4688,18.479278568964666
"174 EAST LAKE DRIVE ATLANTA, GA 30317",Single Family Residential,33.7636994,-84.3111414,344,675.4629,1577.7013,103200,42958.72,5584.6336,18.479278568964666
0 LUCILE AVE SW,Single Family Residential,33.7423128,-84.4274172,81,159.04794,1607.7793,24300,10115.28,1314.9864000000002,18.479278568964663
0 NORTH AVE NE,Multi-Family Residential,33.7713008,-84.38717109999999,5,9.817774,1308.9366,1500,624.4,81.172,18.47927856896467
326 SIMON ST SE,Single Family Residential,33.655193,-84.37978199999999,9,17.671993,1203.5282,2700,1123.92,146.1096,18.479278568964666
0 WELCH ST SW,Single Family Residential,33.7282961,-84.4048337,58,113.886185,1668.0714,17400,7243.04,941.5952,18.479278568964666
0 ORMOND ST SE,Single Family Residential,33.7317501,-84.387945,79,155.12083,1618.3336,23700,9865.52,1282.5176000000001,18.479278568964666
0 NORTH AVE NE,Multi-Family Residential,33.7713008,-84.38717109999999,5,9.817774,1308.9366,1500,624.4,81.172,18.47927856896467
0 CASCADE RD SW,Single Family Residential,33.7230806,-84.5034739,42,82.46931,1583.311,12600,5244.96,681.8448000000001,18.479278568964666
0 HUNNICUTT ST NW,Single Family Residential,33.7666426,-84.3935741,126,247.40791,1663.3662,37800,15734.88,2045.5344,18.479278568964666
"48 ANNISTON AVENUE ATLANTA, GA 30317",Single Family Residential,33.7521289,-84.337259,522,1024.9756,1549.4393,156600,65187.36,8474.3568,18.47927856896467
0 GAULT ST SE,Single Family Residential,33.716327,-84.3723388,77,151.19373,1487.2523,23100,9615.76,1250.0488,18.479278568964666
0 WELLS DR SW,Single Family Residential,33.7032381,-84.4688182,222,435.90918,1232.9929,66600,27723.36,3604.0368000000003,18.479278568964666
0 GLENWOOD AVE SE,Single Family Residential,33.740045,-84.3371535,25,49.08887,1609.0521,7500,3122,405.86,18.479278568964666
0 CALDWELL ST SW,Single Family Residential,42.3857944,-71.0773865,26,51.052425,1368,7800,3246.88,422.0944,18.479278568964666
2760 ALEXANDRIA DR SW,Single Family Residential,33.679168,-84.512,62,121.7404,1381.6465,18600,7742.56,1006.5328000000001,18.479278568964666
0 SIMON ST SE,Single Family Residential,47.404887,-120.2884663,302,592.9936,1553.9832,90600,37713.76,4902.7888,18.479278568964666
948 WESTVIEW DR SW,Single Family Residential,33.746269,-84.41879899999999,64,125.66751,1555.3148,19200,7992.32,1039.0016,18.479278568964666
3895 MELVIN DR SW,Single Family Residential,33.710612,-84.509894,64,125.66751,965.175,19200,7992.32,1039.0016,18.479278568964666
1291 ANTHONY PL NW,Multi-Family Residential,35.1098772,-106.6647035,30,58.906647,2160.6511,9000,3746.4,487.03200000000004,18.479278568964666
0 PEYTON RD SW # REAR,Single Family Residential,33.7520602,-84.4681275,91,178.68349,1594.8324,27300,11364.08,1477.3304,18.479278568964666
"1563 HOSEA L WILLIAMS DRIVE ATLANTA, GA 30317",Single Family Residential,33.7526175,-84.3365314,59,115.84974,1604.4735,17700,7367.92,957.8296,18.479278568964666
0 MACK DR NW,Single Family Residential,33.7904618,-84.4601751,40,78.54219,1440.9268,12000,4995.2,649.376,18.47927856896467
526 LYNNHAVEN DR SW,Single Family Residential,33.71545,-84.405006,41,80.50575,1316.2274,12300,5120.08,665.6104,18.479278568964666
0 PINE ST NW,Single Family Residential,33.7673456,-84.3874613,1242,2438.735,1593.2916,372600,155100.96,20163.1248,18.479278568964666
0 MELDON AVE SW,Single Family Residential,40.76873570000001,-73.64808239999999,28,54.979538,1472.4883,8400,3496.64,454.5632,18.479278568964666
0 CHICAMAUGA AVE SW,Single Family Residential,33.7537307,-84.4320604,9,17.671993,1253.604,2700,1123.92,146.1096,18.479278568964666
381 SIMON ST SE,Single Family Residential,33.654584,-84.378002,56,109.959076,1404.6404,16800,6993.28,909.1264,18.479278568964666
355 ATKINSON DR SE,Single Family Residential,33.653833,-84.378896,56,109.959076,1404.6404,16800,6993.28,909.1264,18.479278568964666
2160 BOLTON RD NW,Multi-Family Residential,33.815236,-84.467181,39,76.578636,1535.5005,11700,4870.32,633.1416,18.479278568964666
2751 PEYTON RD NW,Single Family Residential,33.8084463,-84.4778247,1532,3008.166,1669.9457,459600,191316.16,24871.1008,18.479278568964666
338 ATKINSON DR SE,Single Family Residential,33.654361,-84.37944399999999,18,35.343987,1019.37067,5400,2247.84,292.2192,18.479278568964666
386 ATKINSON DR SE,Single Family Residential,33.654029,-84.377839,4032,7917.053,1583.7075,1209600,503516.16,65457.1008,18.479278568964666
2468 MAIN ST NW,Single Family Residential,33.8033642,-84.4693915,21,41.234653,1083.1195,6300,2622.48,340.92240000000004,18.479278568964666
374 CLIMAX ST SE,Single Family Residential,33.721217,-84.375883,17,33.380432,1414.5527,5100,2122.96,275.9848,18.479278568964666
670 DEKALB AVE NE UNIT CU3,Multi-Family Residential,33.7535159,-84.3655732,2453,4816.6,1587.2268,735900,306330.64,39822.9832,18.479278568964666
0 DECKNER AVE SW,Single Family Residential,33.7143273,-84.4118979,41,80.50575,1646.2435,12300,5120.08,665.6104,18.479278568964666
0 WEATHERBY ST SE,Single Family Residential,33.753053,-84.3534871,59,115.84974,1448.7263,17700,7367.92,957.8296,18.479278568964666
1029 MC DANIEL ST SW,Single Family Residential,33.7267912,-84.4018195,61,119.77685,1560.7542,18300,7617.68,990.2984,18.479278568964666
3620 RUBY H HARPER BLVD SE,Single Family Residential,33.655216,-84.38019000000001,9,17.671993,1203.5282,2700,1123.92,146.1096,18.479278568964666
362 ATKINSON DR SE,Single Family Residential,33.654293,-84.37859999999999,56,109.959076,1404.6404,16800,6993.28,909.1264,18.479278568964666
2443 IVYDALE DR SW,Single Family Residential,33.6987345,-84.4686364,31,60.8702,1181.7477,9300,3871.28,503.26640000000003,18.479278568964666
0 SHIRLEY PL NW,Single Family Residential,33.7551972,-84.4594286,61,119.77685,1533.3342,18300,7617.68,990.2984,18.479278568964666
0 FULTON ST SE,Single Family Residential,33.7418996,-84.3867144,3212,6306.938,1557.9846,963600,401114.56,52144.8928,18.479278568964666
0 MANIGAULT ST SE,Single Family Residential,33.7509846,-84.3537818,29,56.943092,1563.3074,8700,3621.52,470.7976,18.479278568964666
0 TREMONT DR NW,Single Family Residential,33.7626493,-84.4492357,41,80.50575,1234.64,12300,5120.08,665.6104,18.479278568964666
"0 WOODBINE AVENUE ATLANTA, GA 30307",Single Family Residential,33.7543718,-84.3343416,28,54.979538,1456.6954,8400,3496.64,454.5632,18.479278568964666
0 LENA ST NW,Single Family Residential,33.7566649,-84.4222872,55,107.995514,1523.7778,16500,6868.4,892.8919999999999,18.47927856896467
0 GRANT WAY SE,Multi-Family Residential,51.4867088,-0.3285077,6,11.781329,1023.8929,1800,749.28,97.4064,18.479278568964666
